     3.03           OBSERVATION DATA    M: Mixed            RINEX VERSION / TYPE
RTKCONV 2.4.3 b30                       20190514 073157 UTC PGM / RUN BY / DATE 
log: C:\Users\Administrator\Desktop\data20190428\COM3_1904  COMMENT             
format: u-blox                                              COMMENT             
                                                            MARKER NAME         
                                                            MARKER NUMBER       
                                                            MARKER TYPE         
                                                            OBSERVER / AGENCY   
                                                            REC # / TYPE / VERS 
                                                            ANT # / TYPE        
 -2419215.8865  5385498.5603  2405403.6314                  APPROX POSITION XYZ 
        0.0000        0.0000        0.0000                  ANTENNA: DELTA H/E/N
G    4 C1C L1C D1C S1C                                      SYS / # / OBS TYPES 
R    4 C1C L1C D1C S1C                                      SYS / # / OBS TYPES 
E    4 C1C L1C D1C S1C                                      SYS / # / OBS TYPES 
J    4 C1C L1C D1C S1C                                      SYS / # / OBS TYPES 
C    4 C2I L2I D2I S2I                                      SYS / # / OBS TYPES 
  2019     4    28    12    44   33.9970000     GPS         TIME OF FIRST OBS   
  2019     4    28    13    13   53.0010000     GPS         TIME OF LAST OBS    
G                                                           SYS / PHASE SHIFT   
R                                                           SYS / PHASE SHIFT   
E                                                           SYS / PHASE SHIFT   
J                                                           SYS / PHASE SHIFT   
C                                                           SYS / PHASE SHIFT   
  0                                                         GLONASS SLOT / FRQ #
 C1C    0.000 C1P    0.000 C2C    0.000 C2P    0.000        GLONASS COD/PHS/BIS 
                                                            END OF HEADER       
> 2019  4 28 12 44 33.9970000  0  8                     
G 2  21600712.022   113512506.8763        445.146          27.000  
G 6  20672491.775   108634688.6102       -811.224          27.000  
G19  19761890.586                3       -964.165          26.000  
G17  20524063.068   107854657.4332      -1660.820          29.000  
G 5  20604864.859   108279273.1403       1759.052          29.000  
G12  21702214.976   114045907.6593        807.990          29.000  
C11  22238239.302                3      -1212.376          20.000  
C28  22465076.704                3       1714.910          22.000  
> 2019  4 28 12 44 34.9970000  0  8                     
G 2  21600627.834                3        445.563          26.000  
G 6  20672641.982   108635499.0362       -811.194          27.000  
G19  19762079.447                2       -966.142          26.000  
G17  20524380.424   107856318.3782      -1661.057          29.000  
G 5  20604534.956   108277514.1342       1759.083          29.000  
G12  21702062.817                3        809.039          28.000  
C11  22238471.749                3      -1216.275          19.000  
C28  22464748.509                3       1714.722          20.000  
> 2019  4 28 12 44 35.9970000  0  8                     
G 2  21600535.557                3        446.411          25.000  
G 6  20672800.625   108636309.0342       -809.142          26.000  
G19  19762259.601                3       -966.446          25.000  
G17  20524693.380   107857979.5252      -1661.406          29.000  
G 5  20604194.169   108275755.3372       1758.610          28.000  
G12  21701906.690   114044288.5352        806.951          28.000  
C11  22238704.699                3      -1223.874          19.000  
C28  22464418.454                3       1717.116          20.000  
> 2019  4 28 12 44 36.9970000  0  8                     
G 2  21600451.829                3        447.284          26.000  
G 6  20672955.511                3       -809.767          27.000  
G19  19762446.445                3       -966.376          26.000  
G17  20525011.271   107859640.5781      -1661.882          29.000  
G 5  20603859.364   108273996.8382       1758.492          29.000  
G12  21701750.737   114043481.6132        806.406          28.000  
C11  22238938.846                3      -1218.316          19.000  
C28  22464088.448                3       1712.605          20.000  
> 2019  4 28 12 44 37.9970000  0  8                     
G 2  21600371.481                2        446.771          26.000  
G 6  20673104.682                2       -810.345          27.000  
G19  19762628.752                3       -966.911          26.000  
G17  20525331.168   107861302.730       -1662.612          28.000  
G 5  20603520.176   108272239.0602       1757.281          29.000  
G12  21701605.480   114042706.4513        805.857          29.000  
C11  22239171.359                3      -1213.625          19.000  
C28  22463760.945                3       1711.029          21.000  
> 2019  4 28 12 44 38.9970000  0  8                     
G 2  21600286.185   113510269.8703        445.976          31.000  
G 6  20673263.773   108638707.6892       -811.119          31.000  
G19  19762811.360   103854274.2542       -967.616          27.000  
G17  20525643.372   107862965.280       -1662.891          30.000  
G 5  20603190.978   108270481.5272       1757.905          32.000  
G12  21701444.837   114041900.7702        806.516          32.000  
C11  22239405.672                3      -1225.982          22.000  
C28  22463429.456                3       1718.314          22.000  
> 2019  4 28 12 44 39.9970000  0  8                     
G 2  21600198.901   113509823.8182        445.935          30.000  
G 6  20673418.504   108639517.9942       -810.984          31.000  
G19  19762994.713   103855237.2463       -967.667          28.000  
G17  20525960.535   107864650.4013      -1662.875          33.000  
G 5  20602855.340   108268724.6712       1756.443          32.000  
G12  21701293.950   114041095.9022        804.483          31.000  
C11  22239641.486                3      -1217.256          23.000  
C28  22463097.197                3       1712.718          24.000  
> 2019  4 28 12 44 40.9970000  0  8                     
G 2  21600114.387   113509377.6512        445.944          29.000  
G 6  20673574.023   108640328.2902       -809.967          30.000  
G19  19763179.476   103856205.6782       -968.801          29.000  
G17  20526276.176   107866313.9592      -1663.981          32.000  
G 5  20602521.018   108266968.1882       1755.706          32.000  
G12  21701142.805   114040291.5272        804.634          32.000  
C11  22239876.920                3      -1220.912          25.000  
C28  22462766.991                2       1717.659          25.000  
> 2019  4 28 12 44 41.9970000  0  9                     
G 2  21600027.564   113508931.3232        445.012          29.000  
G 6  20673733.742   108641138.4822       -812.474          31.000  
G19  19763364.955   103857174.3062       -967.107          29.000  
G17  20526592.174   107867977.7652      -1663.639          32.000  
G 5  20602186.338   108265211.9282       1756.339          33.000  
G12  21700986.627   114039487.5422        804.942          33.000  
C11  22240111.926                3      -1221.897          25.000  
C28  22462438.007   116967773.3552       1718.221          26.000  
C16  37230237.070                3       1207.685          24.000  
> 2019  4 28 12 44 42.9970000  0  8                     
G 2  21599946.296   113508483.7263        446.832          28.000  
G 6  20673887.758   108641948.4732       -810.165          30.000  
G19  19763551.218   103858162.4853       -969.101          28.000  
G17  20526908.928   107869641.9882      -1664.717          32.000  
G 5  20601856.324   108263485.0603       1755.457          31.000  
G12  21700837.869   114038684.1882        802.137          31.000  
C11  22240345.037                3      -1220.920          24.000  
C28  22462106.531                3       1717.188          25.000  
> 2019  4 28 12 44 43.9970000  0  8                     
G 2  21599860.921                3        447.678          29.000  
G 6  20674035.631   108642758.2682       -809.505          30.000  
G19  19763732.229   103859131.8392       -970.262          29.000  
G17  20527224.537   107871306.4142      -1665.708          32.000  
G 5  20601522.353   108261729.3692       1755.304          30.000  
G12  21700682.040   114037881.0352        801.934          33.000  
C11  22240581.117                3      -1221.856          25.000  
C28  22461775.729                3       1717.945          25.000  
> 2019  4 28 12 44 44.9970000  0  8                     
G 2  21599775.465   113507585.8652        446.364          28.000  
G 6  20674191.300   108643568.5242       -810.875          30.000  
G19  19763922.083   103860101.9532       -971.151          28.000  
G17  20527543.778   107872971.5952      -1666.056          31.000  
G 5  20601185.841   108259974.4782       1753.668          32.000  
G12  21700528.448   114037078.8432        801.419          31.000  
C11  22240816.732                3      -1221.911          24.000  
C28  22461446.841                3       1714.988          24.000  
> 2019  4 28 12 44 45.9970000  0  8                     
G 2  21599692.919   113507139.7812        445.413          29.000  
G 6  20674346.622   108644424.1703       -810.569          31.000  
G19  19764103.441   103861064.0763       -971.771          28.000  
G17  20527857.831   107874637.7812      -1666.577          32.000  
G 5  20600850.847   108258201.5193       1753.116          32.000  
G12  21700375.049   114036239.7693        800.696          33.000  
C11  22241052.874                3      -1224.116          25.000  
C28  22461118.321                3       1717.380          25.000  
> 2019  4 28 12 44 46.9970000  0  8                     
G 2  21599607.509   113506693.8982        444.873          30.000  
G 6  20674495.202   108645235.0662       -810.381          32.000  
G19  19764288.226   103862035.8402       -972.170          31.000  
G17  20528176.381   107876304.6312      -1667.202          32.000  
G 5  20600519.190   108256448.1992       1753.373          34.000  
G12  21700226.260   114035439.4762        800.468          34.000  
C11  22241286.991   115816186.2952      -1223.764          27.000  
C28  22460789.343                2       1716.774          26.000  
> 2019  4 28 12 44 47.9970000  0  9                     
G 2  21599520.875   113506247.7592        446.999          31.000  
G 6  20674649.698   108646045.9152       -810.391          32.000  
G19  19764475.397   103863007.9982       -971.916          31.000  
G17  20528491.724   107877971.8362      -1667.366          34.000  
G 5  20600183.522   108254695.2802       1753.057          35.000  
G12  21700071.691   114034639.7292        799.587          34.000  
C11  22241521.526   115817410.4392      -1224.473          27.000  
C28  22460460.661   116957475.7622       1716.755          27.000  
C16  37228848.755                3       1206.419          25.000  
> 2019  4 28 12 44 48.9970000  0 10                     
G 2  21599435.521   113505801.6362        446.943          30.000  
G 6  20674807.690   108646856.7282       -810.818          27.000  
C 3  35309574.379                3       -389.867          28.000  
G19  19764658.679   103863980.6432       -972.794          30.000  
G17  20528812.184   107879639.505       -1667.870          31.000  
G 5  20599854.112   108252942.7562       1752.560          31.000  
G12  21699916.706   114033840.5392        799.370          31.000  
C11  22241755.527                3      -1225.376          27.000  
C28  22460130.710   116955759.0622       1717.025          27.000  
C16  37228615.016                3       1204.271          25.000  
> 2019  4 28 12 44 49.9970000  0  9                     
G 2  21599348.004   113505355.2302        446.819          25.000  
G 6  20674963.278   108647667.3352       -810.167          28.000  
C 3  35309651.904                3       -455.811          27.000  
G19  19764846.219                3       -973.213          29.000  
G17  20529121.766   107881307.412       -1668.221          30.000  
G 5  20599518.396   108251190.5322       1751.149          31.000  
G12  21699766.833                3        799.023          30.000  
C11  22241989.439                3      -1218.967          25.000  
C28  22459800.003                3       1716.253          25.000  
> 2019  4 28 12 44 50.9970000  0  9                     
G 2  21599265.502   113504908.7572        446.368          27.000  
G 6  20675112.820   108648477.9492       -810.789          29.000  
C 3  35309744.350                3       -552.051          27.000  
G19  19765033.839   103865940.9012       -973.448          29.000  
G17  20529441.670   107882975.796       -1669.583          31.000  
G 5  20599187.546   108249438.6242       1751.893          33.000  
G12  21699612.331   114032245.9482        798.296          31.000  
C11  22242225.333                3      -1224.784          26.000  
C28  22459468.451                3       1716.272          26.000  
> 2019  4 28 12 44 51.9970000  0  9                     
G 2  21599181.078   113504462.2822        446.865          28.000  
G 6  20675268.009                3       -812.468          29.000  
C 3  35309842.504                3       -552.686          27.000  
G19  19765214.567                3       -974.953          28.000  
G17  20529760.780   107884644.609       -1669.012          28.000  
G 5  20598851.145   108247687.3072       1750.809          29.000  
G12  21699459.184   114031448.3742        796.587          28.000  
C11  22242461.836                2      -1225.674          26.000  
C28  22459138.177                2       1716.423          26.000  
> 2019  4 28 12 44 52.9970000  0  8                     
G 2  21599091.785   113504015.5562        445.939          28.000  
G 6  20675422.566   108650078.0092       -810.300          29.000  
G19  19765402.630   103867891.8632       -974.547          28.000  
G17  20530077.804   107886313.671       -1669.801          32.000  
G 5  20598515.757   108245936.0492       1751.298          29.000  
G12  21699309.240   114030651.1022        795.539          31.000  
C11  22242698.299                3      -1226.413          26.000  
C28  22458807.336                2       1717.021          26.000  
> 2019  4 28 12 44 53.9970000  0  8                     
G 2  21599011.365   113503568.6362        447.385          27.000  
G 6  20675580.316   108650888.4372       -809.674          29.000  
G19  19765585.523   103868866.4312       -974.718          27.000  
G17  20530397.680   107887983.205       -1669.772          32.000  
G 5  20598185.099                3       1749.567          29.000  
G12  21699157.509   114029854.3542        796.321          30.000  
C11  22242933.090                3      -1227.429          24.000  
C28  22458479.518                3       1715.738          24.000  
> 2019  4 28 12 44 54.9970000  0  8                     
G 2  21598918.611   113503121.456         446.526          28.000  
G 6  20675731.376   108651701.6783       -811.474          30.000  
G19  19765769.723   103869841.0872       -974.642          28.000  
G17  20530718.177   107889652.803       -1669.517          29.000  
G 5  20597853.281   108242442.2132       1751.204          29.000  
G12  21699006.876   114029057.9492        795.072          27.000  
C11  22243167.928                3      -1226.466          26.000  
C28  22458151.094                2       1717.475          26.000  
> 2019  4 28 12 44 55.9970000  0  8                     
G 2  21598834.466   113502674.513         446.437          28.000  
G 6  20675887.217   108652512.0482       -809.980          30.000  
G19  19765953.566   103870786.6673       -975.832          28.000  
G17  20531034.824   107891323.321       -1670.758          33.000  
G 5  20597520.285   108240692.4072       1750.095          33.000  
G12  21698856.477   114028259.4443        795.504          32.000  
C11  22243403.473                3      -1225.198          26.000  
C28  22457820.624                3       1714.337          26.000  
> 2019  4 28 12 44 56.9970000  0  8                     
G 2  21598756.933   113502227.586         446.849          28.000  
G 6  20676044.295   108653322.6352       -811.079          30.000  
G19  19766140.172                3       -976.505          28.000  
G17  20531351.225   107892994.363       -1671.542          32.000  
G 5  20597187.300   108238943.1482       1748.724          33.000  
G12  21698702.171   114027464.6622        794.082          31.000  
C11  22243638.355                2      -1226.650          26.000  
C28  22457491.437                2       1716.982          26.000  
> 2019  4 28 12 44 57.9970000  0  9                     
G 2  21598670.896   113501780.848         446.058          29.000  
G 6  20676195.325   108654133.4012       -810.195          30.000  
G19  19766330.220   103872743.4742       -976.094          29.000  
G17  20531671.049   107894665.997       -1671.857          33.000  
G 5  20596854.214   108237194.4722       1748.469          34.000  
G12  21698554.662   114026670.6132        793.687          32.000  
C11  22243874.149   115829657.0832      -1226.734          27.000  
C28  22457160.550   116940302.5212       1716.792          28.000  
C16  37226533.009                3       1207.502          25.000  
> 2019  4 28 12 44 58.9970000  0  9                     
G 2  21598582.697   113501333.814         446.564          30.000  
G 6  20676346.509   108654943.9442       -810.833          31.000  
G19  19766513.607   103873720.4282       -976.661          30.000  
G17  20531988.769   107896337.822       -1671.100          34.000  
G 5  20596522.830   108235446.0272       1748.226          31.000  
G12  21698405.328   114025876.9302        793.682          33.000  
C11  22244108.290   115830883.9982      -1227.146          28.000  
C28  22456829.760   116938585.7192       1716.983          28.000  
C16  37226300.875                3       1206.904          26.000  
> 2019  4 28 12 44 59.9970000  0  9                     
G 2  21598500.216   113500886.545         446.904          30.000  
G 6  20676502.915   108655754.3402       -810.065          31.000  
G19  19766701.201   103874697.8292       -979.081          30.000  
G17  20532310.555   107898010.079       -1672.799          34.000  
G 5  20596189.462   108233697.8902       1747.581          34.000  
G12  21698255.225   114025083.7382        793.630          33.000  
C11  22244345.689   115832111.0612      -1227.185          28.000  
C28  22456501.482   116936868.7762       1717.046          28.000  
C16  37226069.899                3       1204.403          26.000  
> 2019  4 28 12 45  0.9970000  0  8                     
G 2  21598414.051                3        445.885          22.000  
G 6  20676653.384   108656564.6612       -810.253          25.000  
G19  19766889.273   103875675.4762       -978.707          24.000  
G17  20532625.322   107899682.616       -1672.613          30.000  
G 5  20595854.273   108231950.033        1747.500          30.000  
G12  21698100.049   114024290.9652        793.100          28.000  
C11  22244582.194                3      -1225.736          27.000  
C28  22456171.666   116935151.7582       1717.047          27.000  
> 2019  4 28 12 45  1.9970000  0  8                     
G 2  21598326.379                3        447.400          24.000  
G 6  20676809.413   108657374.9642       -810.234          26.000  
G19  19767074.443   103876653.5322       -978.511          25.000  
G17  20532947.089   107901355.586       -1673.135          29.000  
G 5  20595520.108   108230202.675        1747.439          29.000  
G12  21697951.230   114023502.8213        792.169          28.000  
C11  22244817.816                3      -1228.031          24.000  
C28  22455844.719                3       1723.819          24.000  
> 2019  4 28 12 45  2.9970000  0  8                     
G 2  21598246.211   113499549.8182        448.456          30.000  
G 6  20676960.966   108658184.9692       -809.374          31.000  
G19  19767256.124   103877631.7812       -977.195          30.000  
G17  20533263.204   107903028.752       -1673.550          33.000  
G 5  20595186.822   108228455.384        1747.163          33.000  
G12  21697802.558   114022710.9692        791.709          33.000  
C11  22245052.176                2      -1226.944          26.000  
C28  22455513.130                3       1717.275          26.000  
> 2019  4 28 12 45  3.9970000  0  8                     
G 2  21598161.546   113499101.9852        447.202          29.000  
G 6  20677114.838   108658994.9822       -810.300          30.000  
G19  19767444.039   103878610.5872       -979.274          29.000  
G17  20533583.806   107904702.373       -1674.603          32.000  
G 5  20594855.443   108226708.595        1746.177          32.000  
G12  21697650.667   114021919.7082        790.020          32.000  
C11  22245287.373                3      -1225.697          25.000  
C28  22455185.188                3       1716.870          25.000  
> 2019  4 28 12 45  4.9970000  0  9                     
G 2  21598075.805   113498654.6882        447.455          29.000  
G 6  20677270.302                3       -809.997          30.000  
G 4  21242099.665                2        219.572          26.000  
G19  19767632.619   103879590.4932       -979.666          29.000  
G17  20533897.171   107906377.094       -1674.642          29.000  
G 5  20594526.028   108224962.853        1747.114          28.000  
G12  21697500.665   114021129.7042        789.679          28.000  
C11  22245525.254                3      -1229.866          25.000  
C28  22454858.177                2       1716.406          26.000  
> 2019  4 28 12 45  5.9970000  0  9                     
G 2  21597990.386   113498207.4862        446.899          29.000  
G 6  20677426.778   108660610.4832       -810.988          30.000  
G 4  21242056.602   111627766.8892        219.057          26.000  
G19  19767820.006   103880570.9802       -980.776          29.000  
G17  20534218.857   107908052.339       -1675.129          33.000  
G 5  20594194.603   108223217.681        1746.405          33.000  
G12  21697348.471   114020340.3462        788.795          32.000  
C11  22245759.264                3      -1229.151          26.000  
C28  22454525.175                3       1716.175          26.000  
> 2019  4 28 12 45  6.9970000  0  9                     
G 2  21597905.840   113497759.9662        447.781          28.000  
G 6  20677582.863   108661421.1142       -810.465          26.000  
G 4  21242015.496   111627547.6852        218.735          25.000  
G19  19768007.755   103881551.733        -981.094          28.000  
G17  20534537.581   107909727.924       -1675.436          32.000  
G 5  20593861.729   108221472.819        1745.115          32.000  
G12  21697201.014   114019551.3662        789.038          31.000  
C11  22245994.113                3      -1232.588          25.000  
C28  22454194.884                3       1722.503          25.000  
> 2019  4 28 12 45  7.9970000  0  9                     
G 2  21597821.677   113497312.4282        447.625          29.000  
G 6  20677737.747   108662231.7642       -811.592          31.000  
G 4  21241974.220   111627328.9082        218.207          26.000  
G19  19768191.172   103882532.935        -982.337          29.000  
G17  20534855.046   107911403.961       -1677.034          32.000  
G 5  20593529.422   108219728.350        1744.233          32.000  
G12  21697045.893   114018762.9812        788.475          32.000  
C11  22246231.761                2      -1229.521          26.000  
C28  22453864.339                3       1715.786          26.000  
> 2019  4 28 12 45  8.9970000  0  9                     
G 2  21597734.801   113496864.6032        448.432          30.000  
G 6  20677893.237   108663042.1172       -809.878          30.000  
G 4  21241932.701                3        218.713          26.000  
G19  19768378.276   103883514.360        -980.095          29.000  
G17  20535174.557   107913080.180       -1676.160          32.000  
G 5  20593196.856   108217979.0693       1744.828          32.000  
G12  21696893.094   114017975.0512        787.380          32.000  
C11  22246466.689                3      -1229.082          26.000  
C28  22453533.324                2       1717.206          26.000  
> 2019  4 28 12 45  9.9970000  0  8                     
G 2  21597645.184                3        447.612          21.000  
G 6  20678046.732                3       -810.644          24.000  
G19  19768572.135   103884496.360        -981.873          28.000  
G17  20535491.861   107914756.912       -1676.776          28.000  
G 5  20592864.499   108216235.0732       1744.404          27.000  
G12  21696747.387                3        786.926          26.000  
C11  22246701.992                3      -1231.645          25.000  
C28  22453204.287                3       1717.815          25.000  
> 2019  4 28 12 45 10.9970000  0  9                     
G 2  21597558.401   113495935.3432        448.861          28.000  
G 6  20678199.074   108664669.1852       -811.263          27.000  
G 4  21241852.203                3        214.928          25.000  
G19  19768753.246   103885498.5433       -983.894          28.000  
G17  20535814.880   107916435.214       -1680.310          31.000  
G 5  20592535.497   108214490.9922       1743.729          30.000  
G12  21696596.840   114016388.4542        787.492          31.000  
C11  22246939.018                3      -1232.389          25.000  
C28  22452875.117   116917981.0152       1717.938          26.000  
> 2019  4 28 12 45 11.9970000  0  8                     
G 2  21597474.073   113495485.9852        449.334          28.000  
G 6  20678353.993   108665479.9592       -810.504          28.000  
G19  19768939.771   103886482.8682       -983.958          28.000  
G17  20536132.982   107918114.940       -1680.350          31.000  
G 5  20592201.400   108212746.9222       1744.310          31.000  
G12  21696453.410   114015600.1712        788.232          31.000  
C11  22247176.193                3      -1236.755          23.000  
C28  22452545.958   116916263.1682       1718.151          26.000  
> 2019  4 28 12 45 12.9970000  0  8                     
G 2  21597387.527   113495035.6502        450.527          28.000  
G 6  20678510.126   108666290.1892       -809.906          28.000  
G19  19769127.211   103887464.0843       -984.280          30.000  
G17  20536449.549   107919795.214       -1679.661          31.000  
G 5  20591869.490   108211002.9972       1743.879          32.000  
G12  21696297.021   114014811.6192        788.102          31.000  
C11  22247414.268                3      -1228.001          22.000  
C28  22452213.619   116914544.4102       1719.172          28.000  
> 2019  4 28 12 45 13.9970000  0 10                     
G 2  21597302.867   113494584.4052        451.862          29.000  
G 6  20678662.079   108667100.0882       -810.244          29.000  
G19  19769314.833   103888449.8772       -986.189          29.000  
G17  20536772.897   107921477.065       -1682.718          29.000  
G 5  20591535.999   108209259.8282       1742.440          32.000  
G12  21696147.787   114014022.7482        788.859          30.000  
C13  36749229.987                3       -229.828          24.000  
C11  22247651.631                3      -1236.981          22.000  
C28  22451884.545   116912824.8962       1719.830          29.000  
C14  22529400.344                3      -2738.679          23.000  
> 2019  4 28 12 45 14.9970000  0 10                     
G 2  21597218.247   113494132.6282        452.235          34.000  
G 6  20678815.038   108667909.3042       -808.643          33.000  
G 4  21241690.017                3        210.963          23.000  
G19  19769501.123   103889436.5062       -986.069          33.000  
G17  20537094.823   107923160.325       -1683.525          34.000  
G 5  20591205.821   108207517.9842       1742.578          36.000  
G12  21695999.111   114013234.1522        788.658          33.000  
C13  36749276.653                2       -228.546          26.000  
C11  22247888.245                3      -1233.041          22.000  
C28  22451554.670   116911104.7272       1720.654          33.000  
> 2019  4 28 12 45 15.9970000  0 12                     
G 2  21597130.673   113493679.9952        452.634          34.000  
G 6  20678967.926   108668717.3142       -808.326          34.000  
G 4  21241651.443   111625630.8752        211.863          26.000  
G19  19769691.913   103890422.9762       -986.479          33.000  
G17  20537413.383   107924843.615       -1683.943          34.000  
G 5  20590878.619   108205777.0742       1740.662          36.000  
G12  21695849.682   114012445.8962        787.571          34.000  
C13  36749318.205   191363323.7922       -228.131          32.000  
C11  22248125.055                2      -1234.825          26.000  
C28  22451221.519   116909383.6472       1720.983          33.000  
C14  22530454.460                2      -2737.440          26.000  
C16  37222363.715                2       1200.678          26.000  
> 2019  4 28 12 45 16.9970000  0 13                     
G 2  21597047.863   113493227.4452        453.523          34.000  
G 6  20679121.013   108669525.3022       -807.662          34.000  
G 4  21241610.908   111625420.6052        210.561          30.000  
G19  19769879.987   103891410.4982       -987.825          32.000  
G17  20537734.777   107926528.160       -1685.514          32.000  
G 5  20590546.310   108204037.7882       1738.840          36.000  
G12  21695698.260   114011658.5192        786.617          37.000  
C 8  36273060.868   188883315.0932        -95.123          32.000  
C13  36749365.750   191363551.9882       -227.548          32.000  
C11  22248362.012   115853028.7052      -1235.894          32.000  
C28  22450893.243   116907662.6432       1720.894          35.000  
C14  22530978.468   117324694.0322      -2736.743          32.000  
C16  37222133.194   193825384.7002       1198.712          32.000  
> 2019  4 28 12 45 17.9970000  0 13                     
G 2  21596960.627   113492773.9942        453.944          33.000  
G 6  20679277.258   108670332.4712       -805.942          34.000  
G 4  21241570.760   111625210.7562        209.452          31.000  
G19  19770065.677   103892398.2902       -987.839          33.000  
G17  20538056.192   107928213.272       -1684.932          33.000  
G 5  20590216.040   108202298.9442       1737.760          36.000  
G12  21695548.760   114010871.0652        788.230          36.000  
C 8  36273081.727   188883407.8952        -92.151          31.000  
C13  36749407.696   191363779.2102       -225.715          32.000  
C11  22248596.835   115854264.2622      -1235.418          35.000  
C28  22450562.298   116905940.7892       1722.797          35.000  
C14  22531506.012   117327430.9382      -2736.686          32.000  
C16  37221902.249   193824185.8182       1198.475          31.000  
> 2019  4 28 12 45 18.9970000  0 14                     
G 2  21596874.383   113492318.3361        456.208          33.000  
G 6  20679429.186   108671138.156        -805.276          35.000  
G 4  21241530.053   111625001.5952        208.046          33.000  
G19  19770255.040   103893386.4882       -989.315          33.000  
G17  20538376.709   107929899.472       -1687.369          36.000  
G 5  20589884.401   108200560.851        1737.742          37.000  
G12  21695400.520   114010082.2921        788.120          37.000  
C 8  36273098.131   188883499.2412        -90.884          32.000  
C13  36749449.995   191364004.7352       -224.974          37.000  
C11  22248838.852   115855500.2852      -1236.612          35.000  
C28  22450230.486   116904217.1692       1723.690          38.000  
C14  22532031.050   117330166.7782      -2735.835          35.000  
C16  37221673.295   193822988.3912       1196.660          32.000  
C 2  36199371.504                3       -319.062          32.000  
> 2019  4 28 12 45 19.9970000  0 16                     
G 2  21596788.480   113491861.776         456.764          33.000  
G 6  20679583.472   108671942.690        -804.508          37.000  
C 3  35311733.483                3       -370.922          30.000  
G 4  21241492.382   111624793.8572        206.789          32.000  
G19  19770442.482   103894375.7012       -989.194          34.000  
G17  20538696.026   107931587.460       -1688.893          37.000  
G 5  20589554.101   108198824.177        1735.773          38.000  
G12  21695251.181   114009293.493         788.952          37.000  
C 8  36273112.996   188883586.7923        -89.050          30.000  
C13  36749494.046   191364228.7722       -223.442          33.000  
C11  22249072.611   115856737.5312      -1238.604          33.000  
C28  22449901.192   116902492.0742       1725.513          34.000  
C14  22532557.034   117332902.0762      -2734.706          35.000  
C16  37221443.792   193821793.2522       1194.326          31.000  
C 4  37431489.958                3       -360.438          28.000  
C 2  36199433.027   188499915.7492       -325.494          31.000  
> 2019  4 28 12 45 20.9970000  0 16                     
G 2  21596701.522   113491403.611         457.953          34.000  
G 6  20679738.096   108672746.062        -803.487          37.000  
C 3  35311811.141                3       -368.799          33.000  
G 4  21241454.594   111624587.3872        206.419          33.000  
G19  19770630.434   103895365.7492       -990.174          35.000  
G17  20539019.268   107933277.034       -1689.859          38.000  
G 5  20589223.605   108197088.385        1735.387          38.000  
G12  21695101.546   114008503.916         790.333          38.000  
C 8  36273133.251   188883675.5852        -88.883          31.000  
C13  36749537.286   191364451.1932       -221.394          34.000  
C11  22249310.605   115857967.6893      -1239.045          33.000  
C28  22449568.696   116900764.8971       1727.627          33.000  
C14  22533078.126   117335636.8792      -2734.378          35.000  
C16  37221213.576   193820599.9862       1193.610          31.000  
C 4  37431559.201                2       -363.696          29.000  
C 2  36199498.640   188500241.0822       -324.960          31.000  
> 2019  4 28 12 45 21.9970000  0 16                     
G 2  21596613.782   113490944.250         459.075          34.000  
G 6  20679888.929   108673548.548        -802.959          37.000  
C 3  35311879.169                3       -360.059          32.000  
G 4  21241414.227   111624381.9592        204.691          33.000  
G19  19770820.102   103896356.4552       -991.307          35.000  
G17  20539340.685   107934967.749       -1691.382          38.000  
G 5  20588893.360   108195353.322        1734.740          38.000  
G12  21694950.791   114007714.019         789.623          38.000  
C 8  36273151.092   188883763.3502        -88.612          31.000  
C13  36749580.032   191364672.450        -221.077          34.000  
C11  22249549.809   115859206.5202      -1239.012          33.000  
C28  22449236.426   116899037.126        1727.510          34.000  
C14  22533605.637   117338371.2792      -2734.894          35.000  
C16  37220986.860   193819407.9862       1192.084          31.000  
C 4  37431628.829   194916283.2592       -363.864          32.000  
C 2  36199558.642   188500566.7482       -325.910          31.000  
> 2019  4 28 12 45 22.9970000  0 16                     
G 2  21596526.468   113490484.557         459.919          37.000  
G 6  20680042.127   108674350.845        -802.456          39.000  
C 3  35311952.128   183878569.1432       -369.806          37.000  
G 4  21241375.073   111624177.2872        203.718          35.000  
G19  19771008.582   103897347.7762       -991.546          38.000  
G17  20539662.670   107936659.242       -1691.425          40.000  
G 5  20588563.442   108193618.806        1734.030          40.000  
G12  21694800.333   114006924.435         789.164          40.000  
C 8  36273165.201   188883850.8162        -87.020          36.000  
C13  36749621.086   191364893.340        -220.327          38.000  
C11  22249787.893   115860445.9222      -1239.445          37.000  
C28  22448904.516   116897309.032        1727.770          39.000  
C14  22534131.587   117341105.9032      -2734.802          39.000  
C16  37220756.555   193818216.3392       1192.108          33.000  
C 4  37431698.929   194916646.9662       -363.938          33.000  
C 2  36199622.770   188500892.3222       -325.769          35.000  
> 2019  4 28 12 45 23.9970000  0 16                     
G 2  21596439.031   113490024.383         461.306          37.000  
G 6  20680194.768   108675152.902        -801.453          39.000  
C 3  35312022.365   183878939.3132       -370.174          37.000  
G 4  21241336.685   111623973.1862        203.906          35.000  
G19  19771197.459   103898339.5572       -992.277          38.000  
G17  20539984.703   107938351.330       -1692.380          40.000  
G 5  20588233.238   108191884.535        1734.076          41.000  
G12  21694650.244   114006135.041         788.531          40.000  
C 8  36273181.032   188883937.8942        -86.636          36.000  
C13  36749663.163   191365113.705        -219.895          38.000  
C11  22250025.632   115861685.6682      -1239.859          37.000  
C28  22448572.631   116895580.574        1728.531          39.000  
C14  22534656.825   117343840.6022      -2734.649          39.000  
C16  37220529.543   193817024.9162       1191.381          34.000  
C 4  37431768.165   194917010.8772       -364.163          34.000  
C 2  36199684.602   188501217.8352       -325.739          36.000  
> 2019  4 28 12 45 24.9970000  0 16                     
G 2  21596351.276   113489563.372         461.608          37.000  
G 6  20680347.360   108675954.340        -800.933          41.000  
C 3  35312091.499   183879309.6452       -370.459          39.000  
G 4  21241298.165   111623769.7612        202.897          36.000  
G19  19771386.240   103899331.2431       -991.946          38.000  
G17  20540306.710   107940044.106       -1692.966          41.000  
G 5  20587903.256   108190150.705        1733.906          41.000  
G12  21694500.037   114005345.427         790.048          41.000  
C 8  36273197.872   188884024.2622        -86.198          38.000  
C13  36749705.163   191365333.221        -219.338          40.000  
C11  22250263.983   115862925.8292      -1240.109          39.000  
C28  22448240.461   116893851.357        1729.392          41.000  
C14  22535181.575   117346575.0612      -2734.221          42.000  
C16  37220300.210   193815834.0792       1190.575          37.000  
C 4  37431836.991   194917375.0512       -364.573          35.000  
C 2  36199746.614   188501543.2702       -325.660          38.000  
> 2019  4 28 12 45 25.9970000  0 16                     
G 2  21596263.770   113489101.719         461.946          37.000  
G 6  20680499.726   108676755.383        -801.198          40.000  
C 3  35312163.926   183879680.7742       -371.799          39.000  
G 4  21241259.535   111623567.5962        201.476          36.000  
G19  19771575.177   103900324.444        -993.819          38.000  
G17  20540629.294   107941738.298       -1695.165          41.000  
G 5  20587573.427   108188417.885        1732.234          41.000  
G12  21694349.758   114004555.965         789.335          41.000  
C 8  36273213.557   188884110.0362        -85.594          38.000  
C13  36749747.257   191365552.045        -218.369          40.000  
C11  22250502.477   115864166.9632      -1241.988          39.000  
C28  22447908.349   116892121.438        1730.426          41.000  
C14  22535706.698   117349309.6112      -2734.700          42.000  
C16  37220072.118   193814644.6412       1188.154          37.000  
C 4  37431907.457   194917740.2602       -366.176          36.000  
C 2  36199809.343   188501869.1882       -326.601          38.000  
> 2019  4 28 12 45 26.9970000  0 16                     
G 2  21596175.633   113488639.735         462.450          37.000  
G 6  20680652.570   108677556.335        -800.677          40.000  
C 3  35312235.949   183880053.0892       -372.467          39.000  
G 4  21241221.605   111623367.0162        199.662          36.000  
G19  19771764.510   103901318.938        -995.074          38.000  
G17  20540952.045   107943434.210       -1696.232          41.000  
G 5  20587244.065   108186686.438        1731.183          41.000  
G12  21694199.417   114003766.950         789.601          41.000  
C 8  36273231.036   188884195.6492        -85.725          37.000  
C13  36749789.398   191365770.480        -217.867          40.000  
C11  22250741.074   115865409.3982      -1242.894          39.000  
C28  22447576.228   116890391.257        1730.770          40.000  
C14  22536231.690   117352043.9861      -2734.917          42.000  
C16  37219842.065   193813456.9252       1187.324          36.000  
C 4  37431978.542   194918103.8053       -367.573          35.000  
C 2  36199872.046   188502195.5261       -327.431          37.000  
> 2019  4 28 12 45 27.9970000  0 16                     
G 2  21596087.588   113488176.785         463.648          38.000  
G 6  20680804.898   108678356.503        -799.022          40.000  
C 3  35312307.685   183880425.6492       -372.368          40.000  
G 4  21241183.633   111623167.0522        200.120          36.000  
G19  19771953.810   103902313.879        -994.794          38.000  
G17  20541274.922   107945130.901       -1696.562          41.000  
G 5  20586914.915   108184955.470        1731.064          41.000  
G12  21694049.132   114002977.661         789.765          39.000  
C 8  36273247.295   188884279.7961        -82.771          39.000  
C13  36749831.424   191365987.872        -216.268          41.000  
C11  22250979.614   115866652.2092      -1242.627          40.000  
C28  22447243.831   116888660.120        1732.393          42.000  
C14  22536756.868   117354778.552       -2733.799          44.000  
C16  37219614.008   193812269.3881       1187.313          38.000  
C 4  37432049.129   194918470.6712       -366.373          36.000  
C 2  36199934.830   188502522.316        -326.010          39.000  
> 2019  4 28 12 45 28.9970000  0 16                     
G 2  21595999.299   113487712.419         464.215          37.000  
G 6  20680957.031   108679155.959        -799.419          41.000  
C 3  35312379.154   183880797.2911       -372.204          40.000  
G 4  21241145.651   111622967.7552        199.035          37.000  
G19  19772143.256   103903309.091        -995.938          40.000  
G17  20541598.320   107946828.157       -1697.484          42.000  
G 5  20586585.267   108183224.050        1731.421          43.000  
G12  21693898.946   114002187.527         790.451          42.000  
C 8  36273263.338   188884363.605         -83.697          39.000  
C13  36749873.126   191366203.991        -215.902          41.000  
C11  22251218.388   115867895.4472      -1244.043          40.000  
C28  22446911.283   116886927.734        1733.315          42.000  
C14  22537281.973   117357512.919       -2734.747          40.000  
C16  37219386.811   193811082.416        1186.829          38.000  
C 4  37432119.841   194918837.7822       -367.447          36.000  
C 2  36199997.522   188502848.266        -325.658          39.000  
> 2019  4 28 12 45 29.9970000  0 16                     
G 2  21595910.883   113487247.980         464.175          37.000  
G 6  20681109.321   108679955.540        -799.573          39.000  
C 3  35312450.585   183881168.980        -371.184          39.000  
G 4  21241107.943   111622768.8342        199.711          36.000  
G19  19772332.888   103904304.672        -995.415          38.000  
G17  20541921.424   107948525.634       -1696.582          40.000  
G 5  20586255.855   108181492.482        1732.805          43.000  
G12  21693748.700   114001397.780         789.263          41.000  
C 8  36273279.209   188884447.433         -83.556          38.000  
C13  36749914.555   191366419.995        -215.687          42.000  
C11  22251457.006   115869138.8182      -1243.208          40.000  
C28  22446578.839   116885195.477        1731.762          42.000  
C14  22537807.233   117360247.666       -2734.507          42.000  
C16  37219158.954   193809894.847        1188.289          38.000  
C 4  37432190.320   194919204.7142       -366.816          35.000  
C 2  36200060.031   188503173.653        -325.119          38.000  
> 2019  4 28 12 45 30.9970000  0 16                     
G 2  21595822.611   113486783.961         463.878          37.000  
G 6  20681261.465   108680755.390        -800.057          39.000  
C 3  35312521.985   183881539.957        -371.106          40.000  
G 4  21241070.067   111622569.8472        199.124          36.000  
G19  19772522.563   103905300.254        -995.350          38.000  
G17  20542244.142   107950222.789       -1697.266          42.000  
G 5  20585926.293   108179760.956        1731.552          43.000  
G12  21693598.914   114000609.053         788.366          42.000  
C 8  36273295.309   188884531.403         -84.066          37.000  
C13  36749956.119   191366636.329        -215.917          41.000  
C11  22251695.758   115870381.8832      -1242.998          40.000  
C28  22446246.229   116883463.690        1731.716          42.000  
C14  22538332.450   117362982.800       -2735.071          41.000  
C16  37218930.649   193808706.202        1189.047          38.000  
C 4  37432260.758   194919572.6683       -365.732          35.000  
C 2  36200122.834   188503498.629        -324.644          38.000  
> 2019  4 28 12 45 31.9970000  0 16                     
G 2  21595734.258   113486319.578         464.202          37.000  
G 6  20681413.592   108681555.108        -800.302          40.000  
C 3  35312593.201   183881910.493        -369.983          40.000  
G 4  21241032.643   111622371.0612        198.833          37.000  
G19  19772711.944   103906296.007        -995.741          38.000  
G17  20542567.170   107951920.062       -1697.726          42.000  
G 5  20585596.774   108178029.356        1732.056          43.000  
G12  21693448.665   113999820.491         788.005          42.000  
C 8  36273311.641   188884614.961         -83.643          38.000  
C13  36749997.720   191366852.225        -215.436          41.000  
C11  22251934.752   115871624.9602      -1243.503          40.000  
C28  22445913.763   116881731.625        1732.084          43.000  
C14  22538857.928   117365718.069       -2735.035          36.000  
C16  37218702.319   193807517.130        1189.270          38.000  
C 4  37432330.954   194919938.3322       -365.250          35.000  
C 2  36200184.970   188503823.124        -324.170          38.000  
> 2019  4 28 12 45 32.9970000  0 16                     
G 2  21595646.023   113485855.004         464.750          37.000  
G 6  20681565.902   108682354.717        -799.935          40.000  
C 3  35312664.370   183882280.924        -370.678          40.000  
G 4  21240995.153   111622172.7682        198.381          36.000  
G19  19772901.593   103907292.244        -996.553          38.000  
G17  20542890.151   107953617.758       -1698.458          40.000  
G 5  20585267.423   108176298.080        1731.549          41.000  
G12  21693298.591   113999032.420         787.781          41.000  
C 8  36273327.743   188884698.391         -83.370          38.000  
C13  36750038.822   191367067.955        -215.629          42.000  
C11  22252173.652   115872867.7881      -1243.662          41.000  
C28  22445581.133   116879999.535        1732.344          43.000  
C14  22539383.954                3      -2733.325          26.000  
C16  37218473.802   193806328.056        1189.083          38.000  
C 4  37432401.110   194920304.0043       -366.150          35.000  
C 2  36200247.308   188504147.481        -324.318          38.000  
> 2019  4 28 12 45 33.9970000  0 16                     
G 2  21595557.348   113485390.053         465.301          37.000  
G 6  20681718.072   108683154.106        -798.259          39.000  
C 3  35312735.534   183882651.106        -370.181          40.000  
G 4  21240957.456   111621974.9542        197.729          36.000  
G19  19773091.296   103908288.808        -996.822          38.000  
G17  20543213.225   107955315.790       -1698.112          40.000  
G 5  20584937.733   108174566.878        1730.986          42.000  
G12  21693148.528   113998244.515         788.086          42.000  
C 8  36273343.797   188884781.505         -82.406          38.000  
C13  36750080.035   191367283.271        -215.551          41.000  
C11  22252412.550   115874111.346       -1243.903          40.000  
C28  22445248.451   116878267.117        1732.752          43.000  
C14  22539908.988                3      -2732.740          25.000  
C16  37218245.307   193805138.793        1189.515          38.000  
C 4  37432471.323   194920669.5513       -364.954          35.000  
C 2  36200309.590   188504471.448        -323.888          38.000  
> 2019  4 28 12 45 34.9970000  0 16                     
G 2  21595468.917   113484924.322         465.547          36.000  
G 6  20681869.994   108683953.022        -798.260          37.000  
C 3  35312806.848   183883021.221        -371.092          34.000  
G 4  21240920.032   111621777.6452        196.797          35.000  
G19  19773281.268   103909285.693        -997.760          37.000  
G17  20543536.392   107957014.379       -1699.015          40.000  
G 5  20584608.734   108172835.849        1730.176          41.000  
G12  21692998.426   113997456.515         787.720          41.000  
C 8  36273359.417   188884863.925         -82.782          32.000  
C13  36750121.316   191367497.683        -214.331          36.000  
C11  22252651.471   115875355.167       -1244.382          34.000  
C28  22444915.798   116876534.025        1732.898          39.000  
C14  22540434.130                3      -2731.060          20.000  
C16  37218016.982   193803949.742        1188.953          32.000  
C 4  37432541.811   194921036.2592       -366.963          29.000  
C 2  36200371.763                3       -327.539          32.000  
> 2019  4 28 12 45 35.9970000  0 16                     
G 2  21595380.411   113484458.949         464.917          36.000  
G 6  20682022.037   108684752.243        -798.950          39.000  
C 3  35312877.980   183883391.346        -370.064          35.000  
G 4  21240882.746   111621581.0052        196.164          35.000  
G19  19773471.333   103910283.194        -997.048          37.000  
G17  20543859.807   107958713.480       -1698.949          40.000  
G 5  20584279.585   108171105.370        1729.884          42.000  
G12  21692848.766   113996669.379         787.304          42.000  
C 8  36273375.179   188884946.586         -82.596          30.000  
C13  36750162.760   191367712.407        -214.215          37.000  
C11  22252890.419   115876599.380       -1243.636          35.000  
C28  22444582.802   116874801.317        1732.490          39.000  
C14  22540960.407                3      -2731.060          18.000  
C16  37217788.539   193802760.677        1189.141          33.000  
C 4  37432612.083   194921401.9202       -365.980          30.000  
C 2  36200433.993   188505127.4552       -324.114          33.000  
> 2019  4 28 12 45 36.9970000  0 16                     
G 2  21595291.740   113483993.681         466.838          36.000  
G 6  20682174.325   108685551.796        -799.941          34.000  
C 3  35312948.747   183883759.1363       -368.808          35.000  
G 4  21240845.232   111621383.7701        195.728          35.000  
G19  19773660.869   103911280.758        -997.706          37.000  
G17  20544182.999   107960412.289       -1698.986          40.000  
G 5  20583950.047   108169374.557        1731.115          41.000  
G12  21692698.893   113995883.011         786.488          42.000  
C 8  36273391.410   188885029.426         -81.461          28.000  
C13  36750204.008   191367927.260        -214.352          37.000  
C11  22253129.346   115877843.366       -1243.425          35.000  
C28  22444250.273   116873068.966        1732.809          37.000  
C14  22541484.620                3      -2731.060          12.000  
C16  37217559.792   193801570.467        1190.467          34.000  
C 4  37432682.105   194921766.6832       -362.470          30.000  
C 2  36200496.349   188505452.5593       -322.523          33.000  
> 2019  4 28 12 45 37.9970000  0 16                     
G 2  21595202.936   113483527.552         467.305          35.000  
G 6  20682324.607                3       -806.714          22.000  
C 3  35313019.560   183884128.2872       -369.575          34.000  
G 4  21240807.965   111621187.781         194.415          34.000  
G19  19773850.930   103912278.762        -998.331          36.000  
G17  20544506.355   107962111.747       -1700.121          38.000  
G 5  20583620.632   108167643.668        1731.144          41.000  
G12  21692549.150   113995096.194         787.249          40.000  
C 8  36273407.569                3        -80.703          17.000  
C13  36750244.944   191368141.234        -213.608          33.000  
C11  22253368.329   115879087.820       -1245.758          34.000  
C28  22443917.495   116871335.844        1733.056          31.000  
C14  22542010.428                3      -2731.060          11.000  
C16  37217331.306   193800380.329        1190.952          33.000  
C 4  37432751.949                3       -373.535          29.000  
C 2  36200558.123   188505775.0582       -322.278          32.000  
> 2019  4 28 12 45 38.9970000  0 15                     
G 2  21595113.827   113483059.911         468.369          36.000  
G 6  20682478.845                3       -798.816          21.000  
C 3  35313090.255   183884496.0583       -368.358          35.000  
G 4  21240770.767   111620992.493         194.969          34.000  
G19  19774040.817   103913277.048        -998.657          36.000  
G17  20544829.845   107963811.884       -1700.632          38.000  
G 5  20583291.242   108165912.373        1731.863          42.000  
G12  21692399.556   113994308.427         787.752          41.000  
C 8  36273423.579                3        -77.818          17.000  
C13  36750285.791   191368353.674        -212.076          37.000  
C11  22253607.390   115880332.669       -1244.951          35.000  
C28  22443581.733   116869601.474        1734.901          25.000  
C16  37217102.859   193799190.440        1190.357          34.000  
C 4  37432822.108                2       -365.260          29.000  
C 2  36200619.890   188506095.8023       -321.031          33.000  
> 2019  4 28 12 45 39.9970000  0 15                     
G 2  21595024.918   113482591.369         468.969          40.000  
G 6  20682629.366                3       -800.806          20.000  
C 3  35313161.055   183884864.1242       -367.013          37.000  
G 4  21240733.655   111620798.319         193.884          36.000  
G19  19774230.900   103914275.988        -998.357          38.000  
G17  20545153.392   107965512.789       -1701.006          38.000  
G 5  20582961.710   108164180.134        1732.797          43.000  
G12  21692249.377   113993519.906         788.666          43.000  
C 8  36273440.074                3        -75.272          17.000  
C13  36750326.485   191368565.485        -212.003          34.000  
C11  22253846.598   115881578.349       -1246.216          37.000  
C28  22443249.850                3       1732.471          23.000  
C16  37216874.494   193798000.007        1191.165          36.000  
C 4  37432892.140   194922862.4212       -365.947          30.000  
C 2  36200681.411   188506416.1662       -319.387          36.000  
> 2019  4 28 12 45 40.9970000  0 15                     
G 2  21594935.675   113482122.118         469.227          41.000  
G 6  20682783.129                3       -814.457          18.000  
C 3  35313231.521   183885230.6302       -365.212          35.000  
G 4  21240696.600   111620604.572         194.631          34.000  
G19  19774420.732   103915275.053        -998.986          38.000  
G17  20545476.771   107967213.561       -1700.884          37.000  
G 5  20582631.783   108162446.227        1735.018          42.000  
G12  21692099.430   113992730.742         789.109          42.000  
C 8  36273455.060                3        -84.162          16.000  
C13  36750366.313   191368776.729        -211.745          28.000  
C11  22254085.775   115882824.147       -1246.058          37.000  
C28  22442920.291                3       1740.069          25.000  
C16  37216645.739   193796807.794        1193.265          35.000  
C 4  37432961.398                3       -360.742          29.000  
C 2  36200742.611   188506734.4713       -317.367          35.000  
> 2019  4 28 12 45 41.9970000  0 15                     
G 2  21594846.426   113481653.268         468.788          39.000  
G 6  20682936.494                3       -805.880          16.000  
C 3  35313301.758   183885596.2022       -365.300          36.000  
G 4  21240660.083   111620412.595         191.890          34.000  
G19  19774611.140   103916275.318       -1000.704          37.000  
G17  20545800.446   107968915.288       -1702.349          39.000  
G 5  20582301.446   108160710.989        1735.778          41.000  
G12  21691949.197   113991941.758         789.052          42.000  
C 8  36273473.210                3        -84.162          15.000  
C13  36750408.283                3       -211.723          26.000  
C11  22254325.379   115884071.396       -1248.642          36.000  
C28  22442593.868                3       1731.865          24.000  
C16  37216416.467   193795614.374        1194.094          35.000  
C 4  37433030.592                3       -368.701          27.000  
C 2  36200803.288   188507051.1513       -315.293          35.000  
> 2019  4 28 12 45 42.9970000  0 15                     
G 2  21594757.005   113481184.242         469.169          37.000  
G 6  20683092.916                3       -805.880          16.000  
C 3  35313371.668   183885959.7272       -362.104          38.000  
G 4  21240623.553   111620221.883         189.883          33.000  
G19  19774801.618   103917276.253       -1001.310          37.000  
G17  20546124.481   107970617.261       -1701.706          39.000  
