% program   : RTKLIB ver.2.4.2
% inp file  : /home/wws/GraphGNSSLib/src/GraphGNSSLib/global_fusion/src/shadowmatching/COM58_2016-10-05_09.48.34_ublox.obs
% inp file  : /home/wws/GraphGNSSLib/src/GraphGNSSLib/global_fusion/src/shadowmatching/COM37_2016-10-05_09.48.30_ublox.obs
% inp file  : /home/wws/GraphGNSSLib/src/GraphGNSSLib/global_fusion/src/shadowmatching/COM54_hed.nav
% obs start : 2016/10/05 01:48:52.0 GPST (week1917 265732.0s)
% obs end   : 2016/10/05 02:19:45.0 GPST (week1917 267585.0s)
% pos mode  : kinematic
% freqs     : L1
% solution  : forward
% elev mask : 15.0 deg
% dynamics  : off
% tidecorr  : off
% ionos opt : broadcast
% tropo opt : saastamoinen
% ephemeris : broadcast
% navi sys  : gps glonass galileo qzss sbas
% amb res   : fix and hold
% amb glo   : on
% val thres : 3.0
% antenna1  :                       ( 0.0000  0.0000  0.0000)
% antenna2  :                       ( 0.0000  0.0000  0.0000)
% ref pos   : 22.425961742, 114.211355684,   53.2231
%
% (lat/lon/height=WGS84/ellipsoidal,Q=1:fix,2:float,3:sbas,4:dgps,5:single,6:ppp,ns=# of satellites)
%  GPST        , latitude(deg),longitude(deg), height(m),  Q, ns,  sdn(m),  sde(m),  sdu(m), sdne(m), sdeu(m), sdun(m),age(s), ratio
1917,265732.000,  22.425961745, 114.211355686,   53.2256,  1,  7,  0.0075,  0.0063,  0.0154, -0.0033, -0.0031,  0.0034, -0.00,   9.5
1917,265733.000,  22.425961737, 114.211355686,   53.2219,  1,  7,  0.0075,  0.0064,  0.0154, -0.0032, -0.0030,  0.0034, -0.00,   9.9
1917,265734.000,  22.425961735, 114.211355687,   53.2238,  1,  7,  0.0076,  0.0064,  0.0154, -0.0033, -0.0031,  0.0033, -0.00,  12.7
1917,265735.000,  22.425961748, 114.211355687,   53.2250,  1,  7,  0.0076,  0.0064,  0.0154, -0.0031, -0.0030,  0.0034, -0.00,  16.6
1917,265736.000,  22.425961754, 114.211355690,   53.2253,  1,  7,  0.0076,  0.0064,  0.0154, -0.0032, -0.0033,  0.0034, -0.00,  21.0
1917,265737.000,  22.425961755, 114.211355679,   53.2251,  1,  7,  0.0075,  0.0063,  0.0154, -0.0031, -0.0031,  0.0034, -0.00,  30.1
1917,265738.000,  22.425961740, 114.211355684,   53.2261,  1,  7,  0.0075,  0.0064,  0.0154, -0.0032, -0.0031,  0.0034, -0.00,  48.9
1917,265739.000,  22.425961747, 114.211355683,   53.2204,  1,  7,  0.0075,  0.0064,  0.0153, -0.0032, -0.0032,  0.0034, -0.00,  68.6
1917,265740.000,  22.425961738, 114.211355691,   53.2242,  1,  7,  0.0076,  0.0063,  0.0154, -0.0033, -0.0030,  0.0034, -0.00,  86.8
1917,265741.000,  22.425961737, 114.211355686,   53.2235,  1,  7,  0.0075,  0.0065,  0.0154, -0.0034, -0.0030,  0.0034, -0.00,  95.3
1917,265742.000,  22.425961749, 114.211355693,   53.2242,  1,  7,  0.0075,  0.0064,  0.0154, -0.0031, -0.0031,  0.0034, -0.00, 999.9
1917,265743.000,  22.425961740, 114.211355689,   53.2245,  1,  7,  0.0076,  0.0063,  0.0153, -0.0033, -0.0032,  0.0033, -0.00, 999.9
1917,265744.000,  22.425961737, 114.211355682,   53.2245,  1,  7,  0.0075,  0.0063,  0.0154, -0.0032, -0.0030,  0.0035, -0.00, 999.9
1917,265745.000,  22.425961740, 114.211355681,   53.2247,  1,  7,  0.0075,  0.0064,  0.0153, -0.0033, -0.0030,  0.0035, -0.00, 999.9
1917,265746.000,  22.425961747, 114.211355683,   53.2269,  1,  7,  0.0076,  0.0063,  0.0154, -0.0032, -0.0031,  0.0034, -0.00, 999.9
1917,265747.000,  22.425961747, 114.211355672,   53.2230,  1,  7,  0.0074,  0.0064,  0.0154, -0.0030, -0.0031,  0.0035, -0.00, 999.9
1917,265748.000,  22.425961743, 114.211355696,   53.2264,  1,  7,  0.0075,  0.0063,  0.0154, -0.0032, -0.0030,  0.0034, -0.00, 999.9
1917,265749.000,  22.425961740, 114.211355680,   53.2226,  1,  7,  0.0075,  0.0062,  0.0154, -0.0034, -0.0030,  0.0034, -0.00, 999.9
1917,265750.000,  22.425961753, 114.211355691,   53.2220,  1,  7,  0.0076,  0.0064,  0.0154, -0.0032, -0.0030,  0.0035, -0.00, 999.9
1917,265751.000,  22.425961733, 114.211355688,   53.2247,  1,  7,  0.0076,  0.0065,  0.0154, -0.0034, -0.0030,  0.0033, -0.00, 999.9
1917,265752.000,  22.425961734, 114.211355693,   53.2237,  1,  7,  0.0075,  0.0063,  0.0153, -0.0033, -0.0031,  0.0035, -0.00, 999.9
1917,265753.000,  22.425961742, 114.211355682,   53.2259,  1,  7,  0.0075,  0.0065,  0.0154, -0.0032, -0.0032,  0.0034, -0.00, 999.9
1917,265754.000,  22.425961742, 114.211355683,   53.2221,  1,  7,  0.0075,  0.0064,  0.0153, -0.0032, -0.0031,  0.0034, -0.00, 999.9
1917,265755.000,  22.425961729, 114.211355688,   53.2245,  1,  7,  0.0075,  0.0064,  0.0154, -0.0031, -0.0030,  0.0034, -0.00, 999.9
1917,265756.000,  22.425961739, 114.211355677,   53.2258,  1,  7,  0.0075,  0.0063,  0.0153, -0.0033, -0.0031,  0.0034, -0.00, 999.9
1917,265757.000,  22.425961740, 114.211355685,   53.2237,  1,  7,  0.0075,  0.0063,  0.0154, -0.0031, -0.0030,  0.0034, -0.00, 999.9
1917,265758.000,  22.425961736, 114.211355688,   53.2244,  1,  7,  0.0075,  0.0063,  0.0154, -0.0033, -0.0028,  0.0034, -0.00, 999.9
1917,265759.000,  22.425961735, 114.211355688,   53.2231,  1,  7,  0.0075,  0.0063,  0.0154, -0.0032, -0.0031,  0.0035, -0.00, 999.9
1917,265760.000,  22.425961744, 114.211355686,   53.2244,  1,  7,  0.0074,  0.0063,  0.0154, -0.0032, -0.0028,  0.0034, -0.00, 999.9
1917,265761.000,  22.425961745, 114.211355692,   53.2238,  1,  7,  0.0076,  0.0064,  0.0154, -0.0033, -0.0030,  0.0034, -0.00, 999.9
1917,265762.000,  22.425961742, 114.211355682,   53.2266,  1,  7,  0.0075,  0.0064,  0.0154, -0.0032, -0.0030,  0.0035, -0.00, 999.9
1917,265763.000,  22.425961739, 114.211355693,   53.2220,  1,  7,  0.0075,  0.0063,  0.0153, -0.0033, -0.0031,  0.0035, -0.00, 999.9
1917,265764.000,  22.425961738, 114.211355680,   53.2230,  1,  7,  0.0075,  0.0063,  0.0154, -0.0033, -0.0030,  0.0035, -0.00, 999.9
1917,265765.000,  22.425961740, 114.211355686,   53.2239,  1,  7,  0.0075,  0.0063,  0.0153, -0.0033, -0.0030,  0.0035, -0.00, 999.9
1917,265766.000,  22.425961734, 114.211355691,   53.2205,  1,  7,  0.0075,  0.0064,  0.0154, -0.0032, -0.0029,  0.0034, -0.00, 999.9
1917,265767.000,  22.425961741, 114.211355691,   53.2228,  1,  7,  0.0075,  0.0062,  0.0153, -0.0033, -0.0029,  0.0035, -0.00, 999.9
1917,265768.000,  22.425961748, 114.211355678,   53.2238,  1,  7,  0.0074,  0.0064,  0.0154, -0.0033, -0.0028,  0.0036, -0.00, 999.9
1917,265769.000,  22.425961747, 114.211355689,   53.2251,  1,  7,  0.0076,  0.0065,  0.0154, -0.0035, -0.0030,  0.0036, -0.00, 999.9
1917,265770.000,  22.425961742, 114.211355677,   53.2250,  1,  7,  0.0076,  0.0064,  0.0154, -0.0032, -0.0031,  0.0034, -0.00, 999.9
1917,265771.000,  22.425961745, 114.211355691,   53.2232,  1,  7,  0.0075,  0.0063,  0.0154, -0.0033, -0.0029,  0.0035, -0.00, 999.9
1917,265772.000,  22.425961745, 114.211355685,   53.2240,  1,  7,  0.0075,  0.0063,  0.0153, -0.0033, -0.0031,  0.0035, -0.00, 999.9
1917,265773.000,  22.425961742, 114.211355692,   53.2260,  1,  7,  0.0076,  0.0063,  0.0154, -0.0034, -0.0030,  0.0034, -0.00, 999.9
1917,265774.000,  22.425961740, 114.211355682,   53.2231,  1,  7,  0.0076,  0.0065,  0.0154, -0.0032, -0.0030,  0.0035, -0.00, 999.9
1917,265775.000,  22.425961730, 114.211355693,   53.2249,  1,  7,  0.0075,  0.0063,  0.0154, -0.0032, -0.0030,  0.0035, -0.00, 999.9
1917,265776.000,  22.425961747, 114.211355678,   53.2234,  1,  7,  0.0076,  0.0063,  0.0154, -0.0033, -0.0031,  0.0035, -0.00, 999.9
1917,265777.000,  22.425961750, 114.211355679,   53.2221,  1,  7,  0.0075,  0.0064,  0.0154, -0.0032, -0.0030,  0.0035, -0.00, 999.9
1917,265778.000,  22.425961731, 114.211355695,   53.2245,  1,  7,  0.0075,  0.0064,  0.0154, -0.0035, -0.0029,  0.0035, -0.00, 999.9
1917,265779.000,  22.425961741, 114.211355687,   53.2222,  1,  7,  0.0075,  0.0064,  0.0154, -0.0033, -0.0032,  0.0034, -0.00, 999.9
1917,265780.000,  22.425961736, 114.211355692,   53.2245,  1,  7,  0.0076,  0.0064,  0.0153, -0.0033, -0.0031,  0.0035, -0.00, 999.9
1917,265781.000,  22.425961739, 114.211355681,   53.2227,  1,  7,  0.0076,  0.0064,  0.0154, -0.0033, -0.0030,  0.0035, -0.00, 999.9
1917,265782.000,  22.425961745, 114.211355685,   53.2233,  1,  7,  0.0076,  0.0063,  0.0154, -0.0033, -0.0031,  0.0035, -0.00, 999.9
1917,265783.000,  22.425961743, 114.211355684,   53.2247,  1,  7,  0.0076,  0.0064,  0.0154, -0.0032, -0.0030,  0.0035, -0.00, 999.9
1917,265784.000,  22.425961750, 114.211355684,   53.2232,  1,  7,  0.0075,  0.0065,  0.0154, -0.0030, -0.0029,  0.0035, -0.00, 999.9
1917,265785.000,  22.425961736, 114.211355680,   53.2215,  1,  7,  0.0075,  0.0063,  0.0154, -0.0032, -0.0031,  0.0035, -0.00, 999.9
1917,265786.000,  22.425961741, 114.211355677,   53.2233,  1,  7,  0.0076,  0.0064,  0.0154, -0.0033, -0.0031,  0.0035, -0.00, 999.9
1917,265787.000,  22.425961746, 114.211355674,   53.2253,  1,  7,  0.0076,  0.0064,  0.0153, -0.0033, -0.0031,  0.0035, -0.00, 999.9
1917,265788.000,  22.425961733, 114.211355685,   53.2237,  1,  7,  0.0075,  0.0063,  0.0154, -0.0031, -0.0030,  0.0037, -0.00, 999.9
1917,265789.000,  22.425961734, 114.211355684,   53.2252,  1,  7,  0.0075,  0.0063,  0.0154, -0.0032, -0.0028,  0.0035, -0.00, 999.9
1917,265790.000,  22.425961735, 114.211355683,   53.2253,  1,  7,  0.0076,  0.0064,  0.0154, -0.0033, -0.0030,  0.0035, -0.00, 999.9
1917,265791.000,  22.425961744, 114.211355683,   53.2234,  1,  7,  0.0075,  0.0062,  0.0154, -0.0031, -0.0030,  0.0036, -0.00, 999.9
1917,265792.000,  22.425961742, 114.211355678,   53.2249,  1,  7,  0.0076,  0.0064,  0.0154, -0.0034, -0.0030,  0.0036, -0.00, 999.9
1917,265793.000,  22.425961742, 114.211355683,   53.2209,  1,  7,  0.0075,  0.0064,  0.0154, -0.0032, -0.0030,  0.0035, -0.00, 999.9
1917,265794.000,  22.425961751, 114.211355685,   53.2227,  1,  7,  0.0076,  0.0064,  0.0154, -0.0033, -0.0031,  0.0036, -0.00, 999.9
1917,265795.000,  22.425961754, 114.211355694,   53.2239,  1,  7,  0.0076,  0.0064,  0.0154, -0.0032, -0.0030,  0.0035, -0.00, 999.9
1917,265796.000,  22.425961740, 114.211355680,   53.2225,  1,  7,  0.0076,  0.0063,  0.0153, -0.0034, -0.0031,  0.0037, -0.00, 999.9
1917,265797.000,  22.425961750, 114.211355685,   53.2236,  1,  7,  0.0076,  0.0063,  0.0154, -0.0033, -0.0031,  0.0036, -0.00, 999.9
1917,265798.000,  22.425961728, 114.211355696,   53.2224,  1,  7,  0.0075,  0.0063,  0.0154, -0.0032, -0.0028,  0.0036, -0.00, 999.9
1917,265799.000,  22.425961745, 114.211355680,   53.2228,  1,  7,  0.0076,  0.0064,  0.0153, -0.0032, -0.0031,  0.0036, -0.00, 999.9
1917,265800.000,  22.425961726, 114.211355689,   53.2233,  1,  7,  0.0075,  0.0063,  0.0154, -0.0033, -0.0028,  0.0035, -0.00, 999.9
1917,265801.000,  22.425961740, 114.211355692,   53.2230,  1,  7,  0.0076,  0.0064,  0.0154, -0.0033, -0.0031,  0.0035, -0.00, 999.9
1917,265802.000,  22.425961741, 114.211355682,   53.2243,  1,  7,  0.0076,  0.0064,  0.0154, -0.0032, -0.0030,  0.0034, -0.00, 999.9
1917,265803.000,  22.425961733, 114.211355687,   53.2227,  1,  7,  0.0075,  0.0064,  0.0154, -0.0031, -0.0031,  0.0036, -0.00, 999.9
1917,265804.000,  22.425961737, 114.211355678,   53.2254,  1,  7,  0.0076,  0.0064,  0.0154, -0.0033, -0.0029,  0.0036, -0.00, 999.9
1917,265805.000,  22.425961740, 114.211355680,   53.2232,  1,  7,  0.0075,  0.0064,  0.0153, -0.0032, -0.0029,  0.0036, -0.00, 999.9
1917,265806.000,  22.425961749, 114.211355687,   53.2234,  1,  7,  0.0076,  0.0064,  0.0154, -0.0033, -0.0031,  0.0035, -0.00, 999.9
1917,265807.000,  22.425961737, 114.211355686,   53.2240,  1,  7,  0.0076,  0.0064,  0.0153, -0.0033, -0.0032,  0.0036, -0.00, 999.9
1917,265808.000,  22.425961737, 114.211355681,   53.2223,  1,  7,  0.0075,  0.0063,  0.0154, -0.0033, -0.0030,  0.0037, -0.00, 999.9
1917,265809.000,  22.425961742, 114.211355681,   53.2267,  1,  7,  0.0075,  0.0064,  0.0154, -0.0035, -0.0029,  0.0036, -0.00, 999.9
1917,265810.000,  22.425961741, 114.211355685,   53.2238,  1,  7,  0.0076,  0.0065,  0.0154, -0.0032, -0.0031,  0.0036, -0.00, 999.9
1917,265811.000,  22.425961739, 114.211355684,   53.2235,  1,  7,  0.0075,  0.0063,  0.0154, -0.0031, -0.0029,  0.0035, -0.00, 999.9
1917,265812.000,  22.425961749, 114.211355681,   53.2234,  1,  7,  0.0076,  0.0064,  0.0153, -0.0033, -0.0030,  0.0036, -0.00, 999.9
1917,265813.000,  22.425961731, 114.211355688,   53.2242,  1,  7,  0.0075,  0.0063,  0.0154, -0.0032, -0.0029,  0.0037, -0.00, 999.9
1917,265814.000,  22.425961743, 114.211355689,   53.2242,  1,  7,  0.0075,  0.0065,  0.0154, -0.0033, -0.0029,  0.0036, -0.00, 999.9
1917,265815.000,  22.425961739, 114.211355680,   53.2247,  1,  7,  0.0075,  0.0064,  0.0154, -0.0033, -0.0029,  0.0037, -0.00, 999.9
1917,265816.000,  22.425961739, 114.211355687,   53.2248,  1,  7,  0.0076,  0.0064,  0.0154, -0.0032, -0.0032,  0.0035, -0.00, 999.9
1917,265817.000,  22.425961739, 114.211355690,   53.2224,  1,  7,  0.0076,  0.0064,  0.0154, -0.0034, -0.0030,  0.0036, -0.00, 999.9
1917,265818.000,  22.425961736, 114.211355676,   53.2257,  1,  7,  0.0075,  0.0063,  0.0153, -0.0031, -0.0030,  0.0036, -0.00, 999.9
1917,265819.000,  22.425961741, 114.211355690,   53.2241,  1,  7,  0.0075,  0.0063,  0.0154, -0.0033, -0.0031,  0.0036, -0.00, 999.9
1917,265820.000,  22.425961742, 114.211355687,   53.2222,  1,  7,  0.0075,  0.0063,  0.0154, -0.0032, -0.0030,  0.0036, -0.00, 999.9
1917,265821.000,  22.425961738, 114.211355703,   53.2265,  1,  7,  0.0075,  0.0064,  0.0154, -0.0033, -0.0028,  0.0037, -0.00, 999.9
1917,265822.000,  22.425961745, 114.211355689,   53.2251,  1,  7,  0.0075,  0.0064,  0.0154, -0.0033, -0.0030,  0.0036, -0.00, 999.9
1917,265823.000,  22.425961734, 114.211355691,   53.2232,  1,  7,  0.0076,  0.0064,  0.0154, -0.0034, -0.0030,  0.0037, -0.00, 999.9
1917,265824.000,  22.425961741, 114.211355687,   53.2269,  1,  7,  0.0076,  0.0063,  0.0154, -0.0032, -0.0030,  0.0036, -0.00, 999.9
1917,265825.000,  22.425961748, 114.211355685,   53.2237,  1,  7,  0.0076,  0.0063,  0.0153, -0.0034, -0.0030,  0.0036, -0.00, 999.9
1917,265826.000,  22.425961736, 114.211355682,   53.2247,  1,  7,  0.0075,  0.0064,  0.0154, -0.0032, -0.0027,  0.0037, -0.00, 999.9
1917,265827.000,  22.425961746, 114.211355675,   53.2246,  1,  7,  0.0076,  0.0065,  0.0154, -0.0032, -0.0031,  0.0036, -0.00, 999.9
1917,265828.000,  22.425961743, 114.211355692,   53.2269,  1,  7,  0.0076,  0.0065,  0.0154, -0.0031, -0.0030,  0.0036, -0.00, 999.9
1917,265829.000,  22.425961742, 114.211355685,   53.2261,  1,  7,  0.0075,  0.0063,  0.0153, -0.0035, -0.0029,  0.0037, -0.00, 999.9
1917,265830.000,  22.425961745, 114.211355684,   53.2233,  1,  7,  0.0075,  0.0063,  0.0154, -0.0032, -0.0029,  0.0037, -0.00, 999.9
1917,265831.000,  22.425961742, 114.211355690,   53.2249,  1,  7,  0.0075,  0.0063,  0.0154, -0.0033, -0.0031,  0.0036, -0.00, 999.9
1917,265832.000,  22.425961749, 114.211355689,   53.2282,  1,  7,  0.0075,  0.0064,  0.0154, -0.0032, -0.0027,  0.0037, -0.00, 999.9
1917,265833.000,  22.425961734, 114.211355688,   53.2242,  1,  7,  0.0075,  0.0064,  0.0154, -0.0032, -0.0029,  0.0037, -0.00, 999.9
1917,265834.000,  22.425961747, 114.211355677,   53.2248,  1,  7,  0.0075,  0.0063,  0.0154, -0.0034, -0.0029,  0.0038, -0.00, 999.9
1917,265835.000,  22.425961748, 114.211355690,   53.2249,  1,  7,  0.0076,  0.0065,  0.0154, -0.0032, -0.0029,  0.0037, -0.00, 999.9
1917,265836.000,  22.425961743, 114.211355683,   53.2261,  1,  7,  0.0076,  0.0064,  0.0154, -0.0032, -0.0030,  0.0037, -0.00, 999.9
1917,265837.000,  22.425961750, 114.211355680,   53.2285,  1,  7,  0.0075,  0.0063,  0.0153, -0.0035, -0.0030,  0.0037, -0.00, 999.9
1917,265838.000,  22.425961746, 114.211355680,   53.2243,  1,  7,  0.0075,  0.0064,  0.0154, -0.0034, -0.0029,  0.0037, -0.00, 999.9
1917,265839.000,  22.425961746, 114.211355680,   53.2265,  1,  7,  0.0075,  0.0063,  0.0154, -0.0031, -0.0030,  0.0037, -0.00, 999.9
1917,265840.000,  22.425961745, 114.211355689,   53.2244,  1,  7,  0.0075,  0.0064,  0.0154, -0.0032, -0.0029,  0.0036, -0.00, 999.9
1917,265841.000,  22.425961741, 114.211355685,   53.2245,  1,  7,  0.0076,  0.0063,  0.0154, -0.0034, -0.0030,  0.0038, -0.00, 999.9
1917,265842.000,  22.425961735, 114.211355677,   53.2239,  1,  7,  0.0075,  0.0064,  0.0154, -0.0031, -0.0030,  0.0038, -0.00, 999.9
1917,265843.000,  22.425961755, 114.211355675,   53.2258,  1,  7,  0.0075,  0.0064,  0.0154, -0.0032, -0.0030,  0.0037, -0.00, 999.9
1917,265844.000,  22.425961748, 114.211355675,   53.2258,  1,  7,  0.0076,  0.0063,  0.0154, -0.0033, -0.0029,  0.0037, -0.00, 999.9
1917,265845.000,  22.425961740, 114.211355685,   53.2239,  1,  7,  0.0075,  0.0064,  0.0154, -0.0034, -0.0028,  0.0038, -0.00, 999.9
1917,265846.000,  22.425961740, 114.211355684,   53.2267,  1,  7,  0.0076,  0.0063,  0.0154, -0.0034, -0.0029,  0.0037, -0.00, 999.9
1917,265847.000,  22.425961754, 114.211355684,   53.2258,  1,  7,  0.0075,  0.0064,  0.0153, -0.0033, -0.0030,  0.0038, -0.00, 999.9
1917,265848.000,  22.425961740, 114.211355683,   53.2261,  1,  7,  0.0075,  0.0064,  0.0154, -0.0034, -0.0027,  0.0038, -0.00, 999.9
1917,265849.000,  22.425961742, 114.211355678,   53.2273,  1,  7,  0.0076,  0.0063,  0.0154, -0.0034, -0.0029,  0.0039, -0.00, 999.9
1917,265850.000,  22.425961741, 114.211355686,   53.2269,  1,  7,  0.0076,  0.0064,  0.0154, -0.0032, -0.0031,  0.0038, -0.00, 999.9
1917,265851.000,  22.425961730, 114.211355688,   53.2269,  1,  7,  0.0076,  0.0065,  0.0154, -0.0031, -0.0030,  0.0037, -0.00, 999.9
1917,265852.000,  22.425961737, 114.211355690,   53.2256,  1,  7,  0.0075,  0.0064,  0.0154, -0.0030, -0.0030,  0.0037, -0.00, 999.9
1917,265853.000,  22.425961733, 114.211355684,   53.2261,  1,  7,  0.0076,  0.0063,  0.0154, -0.0033, -0.0031,  0.0037, -0.00, 999.9
1917,265854.000,  22.425961740, 114.211355693,   53.2265,  1,  7,  0.0076,  0.0064,  0.0154, -0.0033, -0.0029,  0.0037, -0.00, 999.9
1917,265855.000,  22.425961743, 114.211355683,   53.2267,  1,  7,  0.0075,  0.0064,  0.0154, -0.0033, -0.0029,  0.0038, -0.00, 999.9
1917,265856.000,  22.425961743, 114.211355689,   53.2264,  1,  7,  0.0075,  0.0063,  0.0154, -0.0033, -0.0030,  0.0037, -0.00, 999.9
1917,265857.000,  22.425961738, 114.211355679,   53.2264,  1,  7,  0.0075,  0.0064,  0.0154, -0.0032, -0.0028,  0.0037, -0.00, 999.9
1917,265858.000,  22.425961737, 114.211355683,   53.2249,  1,  7,  0.0075,  0.0062,  0.0154, -0.0032, -0.0030,  0.0038, -0.00, 999.9
1917,265859.000,  22.425961744, 114.211355684,   53.2258,  1,  7,  0.0075,  0.0064,  0.0154, -0.0031, -0.0030,  0.0038, -0.00, 999.9
1917,265860.000,  22.425961735, 114.211355674,   53.2264,  1,  7,  0.0076,  0.0064,  0.0153, -0.0034, -0.0030,  0.0038, -0.00, 999.9
1917,265861.000,  22.425961745, 114.211355681,   53.2237,  1,  7,  0.0075,  0.0064,  0.0154, -0.0033, -0.0030,  0.0038, -0.00, 999.9
1917,265862.000,  22.425961735, 114.211355684,   53.2249,  1,  7,  0.0075,  0.0063,  0.0154, -0.0032, -0.0028,  0.0038, -0.00, 999.9
1917,265863.000,  22.425961748, 114.211355689,   53.2261,  1,  7,  0.0075,  0.0063,  0.0154, -0.0032, -0.0031,  0.0038, -0.00, 999.9
1917,265864.000,  22.425961742, 114.211355685,   53.2245,  1,  7,  0.0075,  0.0065,  0.0154, -0.0032, -0.0030,  0.0038, -0.00, 999.9
1917,265865.000,  22.425961736, 114.211355690,   53.2239,  1,  7,  0.0075,  0.0065,  0.0154, -0.0031, -0.0030,  0.0038, -0.00, 999.9
1917,265866.000,  22.425961736, 114.211355689,   53.2228,  1,  7,  0.0076,  0.0064,  0.0154, -0.0035, -0.0030,  0.0037, -0.00, 999.9
1917,265867.000,  22.425961746, 114.211355689,   53.2234,  1,  7,  0.0076,  0.0065,  0.0154, -0.0033, -0.0029,  0.0038, -0.00, 999.9
1917,265868.000,  22.425961734, 114.211355693,   53.2238,  1,  7,  0.0076,  0.0064,  0.0154, -0.0032, -0.0028,  0.0037, -0.00, 999.9
1917,265869.000,  22.425961750, 114.211355675,   53.2254,  1,  7,  0.0075,  0.0065,  0.0154, -0.0032, -0.0028,  0.0038, -0.00, 999.9
1917,265870.000,  22.425961742, 114.211355683,   53.2242,  1,  7,  0.0076,  0.0063,  0.0154, -0.0033, -0.0029,  0.0038, -0.00, 999.9
1917,265871.000,  22.425961738, 114.211355690,   53.2254,  1,  7,  0.0075,  0.0065,  0.0154, -0.0033, -0.0028,  0.0038, -0.00, 999.9
1917,265872.000,  22.425961736, 114.211355685,   53.2240,  1,  7,  0.0076,  0.0063,  0.0154, -0.0032, -0.0029,  0.0038, -0.00, 999.9
1917,265873.000,  22.425961742, 114.211355681,   53.2220,  1,  7,  0.0076,  0.0064,  0.0154, -0.0031, -0.0030,  0.0038, -0.00, 999.9
1917,265874.000,  22.425961743, 114.211355680,   53.2262,  1,  7,  0.0076,  0.0064,  0.0154, -0.0032, -0.0029,  0.0038, -0.00, 999.9
1917,265875.000,  22.425961734, 114.211355685,   53.2253,  1,  7,  0.0075,  0.0063,  0.0154, -0.0033, -0.0029,  0.0039, -0.00, 999.9
1917,265876.000,  22.425961743, 114.211355673,   53.2260,  1,  7,  0.0075,  0.0063,  0.0154, -0.0033, -0.0028,  0.0038, -0.00, 999.9
1917,265877.000,  22.425961752, 114.211355686,   53.2262,  1,  7,  0.0076,  0.0064,  0.0154, -0.0031, -0.0029,  0.0038, -0.00, 999.9
1917,265878.000,  22.425961741, 114.211355692,   53.2266,  1,  7,  0.0075,  0.0064,  0.0154, -0.0031, -0.0030,  0.0038, -0.00, 999.9
1917,265879.000,  22.425961747, 114.211355686,   53.2244,  1,  7,  0.0076,  0.0064,  0.0154, -0.0034, -0.0029,  0.0038, -0.00, 999.9
1917,265880.000,  22.425961746, 114.211355684,   53.2232,  1,  7,  0.0076,  0.0063,  0.0154, -0.0034, -0.0030,  0.0038, -0.00, 999.9
1917,265881.000,  22.425961741, 114.211355672,   53.2255,  1,  7,  0.0076,  0.0064,  0.0154, -0.0033, -0.0028,  0.0038, -0.00, 999.9
1917,265882.000,  22.425961748, 114.211355675,   53.2268,  1,  7,  0.0076,  0.0064,  0.0154, -0.0032, -0.0030,  0.0038, -0.00, 999.9
1917,265883.000,  22.425961745, 114.211355680,   53.2266,  1,  7,  0.0075,  0.0064,  0.0154, -0.0032, -0.0030,  0.0038, -0.00, 999.9
1917,265884.000,  22.425961749, 114.211355677,   53.2240,  1,  7,  0.0075,  0.0064,  0.0154, -0.0032, -0.0027,  0.0039, -0.00, 999.9
1917,265885.000,  22.425961733, 114.211355679,   53.2244,  1,  7,  0.0075,  0.0064,  0.0154, -0.0034, -0.0028,  0.0038, -0.00, 999.9
1917,265886.000,  22.425961739, 114.211355676,   53.2269,  1,  7,  0.0076,  0.0065,  0.0154, -0.0032, -0.0029,  0.0038, -0.00, 999.9
1917,265887.000,  22.425961740, 114.211355682,   53.2256,  1,  7,  0.0076,  0.0064,  0.0154, -0.0035, -0.0028,  0.0038, -0.00, 999.9
1917,265888.000,  22.425961751, 114.211355677,   53.2243,  1,  7,  0.0076,  0.0065,  0.0154, -0.0033, -0.0028,  0.0039, -0.00, 999.9
1917,265889.000,  22.425961736, 114.211355687,   53.2246,  1,  7,  0.0076,  0.0064,  0.0154, -0.0031, -0.0030,  0.0039, -0.00, 999.9
1917,265890.000,  22.425961748, 114.211355682,   53.2243,  1,  7,  0.0075,  0.0065,  0.0154, -0.0030, -0.0030,  0.0038, -0.00, 999.9
1917,265891.000,  22.425961740, 114.211355683,   53.2284,  1,  7,  0.0076,  0.0064,  0.0154, -0.0033, -0.0029,  0.0039, -0.00, 999.9
1917,265892.000,  22.425961752, 114.211355683,   53.2254,  1,  7,  0.0075,  0.0064,  0.0154, -0.0033, -0.0027,  0.0039, -0.00, 999.9
1917,265893.000,  22.425961755, 114.211355679,   53.2243,  1,  7,  0.0075,  0.0064,  0.0153, -0.0031, -0.0030,  0.0038, -0.00, 999.9
1917,265894.000,  22.425961742, 114.211355687,   53.2275,  1,  7,  0.0076,  0.0066,  0.0154, -0.0032, -0.0031,  0.0038, -0.00, 999.9
1917,265895.000,  22.425961759, 114.211355681,   53.2244,  1,  7,  0.0076,  0.0065,  0.0154, -0.0031, -0.0029,  0.0039, -0.00, 999.9
1917,265896.000,  22.425961748, 114.211355688,   53.2270,  1,  7,  0.0075,  0.0065,  0.0154, -0.0031, -0.0028,  0.0039, -0.00, 999.9
1917,265897.000,  22.425961730, 114.211355673,   53.2263,  1,  7,  0.0076,  0.0064,  0.0154, -0.0033, -0.0027,  0.0039, -0.00, 999.9
1917,265898.000,  22.425961739, 114.211355676,   53.2262,  1,  7,  0.0075,  0.0064,  0.0154, -0.0032, -0.0027,  0.0039, -0.00, 999.9
1917,265899.000,  22.425961744, 114.211355688,   53.2248,  1,  7,  0.0075,  0.0064,  0.0154, -0.0032, -0.0028,  0.0039, -0.00, 999.9
1917,265900.000,  22.425961743, 114.211355679,   53.2265,  1,  7,  0.0076,  0.0064,  0.0154, -0.0032, -0.0029,  0.0039, -0.00, 999.9
1917,265901.000,  22.425961729, 114.211355690,   53.2290,  1,  7,  0.0076,  0.0064,  0.0154, -0.0035, -0.0027,  0.0038, -0.00, 999.9
1917,265902.000,  22.425961742, 114.211355686,   53.2263,  1,  7,  0.0076,  0.0063,  0.0154, -0.0033, -0.0029,  0.0039, -0.00, 999.9
1917,265903.000,  22.425961740, 114.211355672,   53.2245,  1,  7,  0.0076,  0.0064,  0.0154, -0.0033, -0.0028,  0.0038, -0.00, 999.9
1917,265904.000,  22.425961752, 114.211355680,   53.2271,  1,  7,  0.0076,  0.0063,  0.0154, -0.0034, -0.0028,  0.0038, -0.00, 999.9
1917,265905.000,  22.425961738, 114.211355685,   53.2253,  1,  7,  0.0076,  0.0065,  0.0154, -0.0031, -0.0030,  0.0038, -0.00, 999.9
1917,265906.000,  22.425961740, 114.211355677,   53.2254,  1,  7,  0.0076,  0.0063,  0.0154, -0.0031, -0.0029,  0.0039, -0.00, 999.9
1917,265907.000,  22.425961741, 114.211355675,   53.2269,  1,  7,  0.0075,  0.0064,  0.0154, -0.0032, -0.0029,  0.0039, -0.00, 999.9
1917,265908.000,  22.425961740, 114.211355679,   53.2278,  1,  7,  0.0076,  0.0064,  0.0154, -0.0032, -0.0031,  0.0038, -0.00, 999.9
1917,265909.000,  22.425961737, 114.211355693,   53.2263,  1,  7,  0.0076,  0.0063,  0.0154, -0.0034, -0.0030,  0.0039, -0.00, 999.9
1917,265910.000,  22.425961743, 114.211355684,   53.2266,  1,  7,  0.0076,  0.0065,  0.0154, -0.0032, -0.0030,  0.0038, -0.00, 999.9
1917,265911.000,  22.425961745, 114.211355687,   53.2283,  1,  7,  0.0076,  0.0064,  0.0154, -0.0034, -0.0029,  0.0039, -0.00, 999.9
1917,265912.000,  22.425961736, 114.211355684,   53.2274,  1,  7,  0.0076,  0.0065,  0.0154, -0.0032, -0.0031,  0.0039, -0.00, 999.9
1917,265913.000,  22.425961746, 114.211355677,   53.2265,  1,  7,  0.0076,  0.0064,  0.0154, -0.0033, -0.0029,  0.0038, -0.00, 999.9
1917,265914.000,  22.425961746, 114.211355684,   53.2271,  1,  7,  0.0076,  0.0064,  0.0154, -0.0032, -0.0029,  0.0039, -0.00, 999.9
1917,265915.000,  22.425961747, 114.211355677,   53.2258,  1,  7,  0.0076,  0.0065,  0.0154, -0.0033, -0.0028,  0.0039, -0.00, 999.9
1917,265916.000,  22.425961751, 114.211355690,   53.2241,  1,  7,  0.0076,  0.0064,  0.0154, -0.0032, -0.0028,  0.0039, -0.00, 999.9
1917,265917.000,  22.425961741, 114.211355682,   53.2257,  1,  7,  0.0075,  0.0064,  0.0154, -0.0033, -0.0030,  0.0040, -0.00, 999.9
1917,265918.000,  22.425961749, 114.211355685,   53.2254,  1,  7,  0.0076,  0.0065,  0.0154, -0.0032, -0.0028,  0.0039, -0.00, 999.9
1917,265919.000,  22.425961732, 114.211355688,   53.2240,  1,  7,  0.0075,  0.0064,  0.0154, -0.0032, -0.0028,  0.0039, -0.00, 999.9
1917,265920.000,  22.425961749, 114.211355685,   53.2248,  1,  7,  0.0075,  0.0065,  0.0154, -0.0032, -0.0029,  0.0040, -0.00, 999.9
1917,265921.000,  22.425961749, 114.211355696,   53.2248,  1,  7,  0.0075,  0.0064,  0.0154, -0.0032, -0.0028,  0.0039, -0.00, 999.9
1917,265922.000,  22.425961742, 114.211355690,   53.2246,  1,  7,  0.0076,  0.0065,  0.0154, -0.0032, -0.0029,  0.0039, -0.00, 999.9
1917,265923.000,  22.425961740, 114.211355681,   53.2257,  1,  7,  0.0076,  0.0064,  0.0154, -0.0032, -0.0029,  0.0039, -0.00, 999.9
1917,265924.000,  22.425961741, 114.211355682,   53.2236,  1,  7,  0.0075,  0.0063,  0.0154, -0.0033, -0.0029,  0.0040, -0.00, 999.9
1917,265925.000,  22.425961732, 114.211355685,   53.2247,  1,  7,  0.0076,  0.0064,  0.0154, -0.0032, -0.0029,  0.0039, -0.00, 999.9
1917,265926.000,  22.425961748, 114.211355687,   53.2241,  1,  7,  0.0076,  0.0065,  0.0154, -0.0032, -0.0029,  0.0039, -0.00, 999.9
1917,265927.000,  22.425961748, 114.211355674,   53.2238,  1,  7,  0.0076,  0.0064,  0.0154, -0.0033, -0.0027,  0.0039, -0.00, 999.9
1917,265928.000,  22.425961743, 114.211355679,   53.2257,  1,  7,  0.0076,  0.0065,  0.0154, -0.0032, -0.0029,  0.0039, -0.00, 999.9
1917,265929.000,  22.425961743, 114.211355676,   53.2255,  1,  7,  0.0076,  0.0063,  0.0154, -0.0034, -0.0027,  0.0040, -0.00, 999.9
1917,265930.000,  22.425961746, 114.211355681,   53.2244,  1,  7,  0.0075,  0.0064,  0.0154, -0.0031, -0.0027,  0.0040, -0.00, 999.9
1917,265931.000,  22.425961741, 114.211355684,   53.2258,  1,  7,  0.0076,  0.0064,  0.0154, -0.0032, -0.0029,  0.0040, -0.00, 999.9
1917,265932.000,  22.425961749, 114.211355697,   53.2246,  1,  7,  0.0076,  0.0066,  0.0154, -0.0031, -0.0029,  0.0039, -0.00, 999.9
1917,265933.000,  22.425961751, 114.211355683,   53.2258,  1,  7,  0.0076,  0.0065,  0.0154, -0.0032, -0.0029,  0.0039, -0.00, 999.9
1917,265934.000,  22.425961745, 114.211355680,   53.2275,  1,  7,  0.0075,  0.0064,  0.0154, -0.0033, -0.0030,  0.0039, -0.00, 999.9
1917,265935.000,  22.425961744, 114.211355677,   53.2257,  1,  7,  0.0076,  0.0064,  0.0154, -0.0034, -0.0027,  0.0041, -0.00, 999.9
1917,265936.000,  22.425961745, 114.211355681,   53.2253,  1,  7,  0.0076,  0.0065,  0.0154, -0.0033, -0.0029,  0.0040, -0.00, 999.9
1917,265937.000,  22.425961742, 114.211355677,   53.2260,  1,  7,  0.0075,  0.0063,  0.0154, -0.0032, -0.0029,  0.0040, -0.00, 999.9
1917,265938.000,  22.425961750, 114.211355671,   53.2240,  1,  7,  0.0076,  0.0064,  0.0154, -0.0034, -0.0029,  0.0040, -0.00, 999.9
1917,265939.000,  22.425961748, 114.211355685,   53.2273,  1,  7,  0.0076,  0.0066,  0.0154, -0.0031, -0.0028,  0.0039, -0.00, 999.9
1917,265940.000,  22.425961750, 114.211355678,   53.2262,  1,  7,  0.0075,  0.0064,  0.0154, -0.0032, -0.0028,  0.0041, -0.00, 999.9
1917,265941.000,  22.425961748, 114.211355678,   53.2235,  1,  7,  0.0075,  0.0064,  0.0154, -0.0034, -0.0025,  0.0040, -0.00, 999.9
1917,265942.000,  22.425961745, 114.211355686,   53.2234,  1,  7,  0.0076,  0.0064,  0.0154, -0.0034, -0.0026,  0.0040, -0.00, 999.9
1917,265943.000,  22.425961747, 114.211355685,   53.2272,  1,  7,  0.0075,  0.0064,  0.0154, -0.0032, -0.0027,  0.0040, -0.00, 999.9
1917,265944.000,  22.425961746, 114.211355675,   53.2288,  1,  7,  0.0076,  0.0065,  0.0154, -0.0032, -0.0028,  0.0039, -0.00, 999.9
1917,265945.000,  22.425961742, 114.211355684,   53.2251,  1,  7,  0.0075,  0.0065,  0.0154, -0.0034, -0.0029,  0.0040, -0.00, 999.9
1917,265946.000,  22.425961740, 114.211355665,   53.2297,  1,  7,  0.0075,  0.0065,  0.0154, -0.0032, -0.0027,  0.0040, -0.00, 999.9
1917,265947.000,  22.425961757, 114.211355676,   53.2274,  1,  7,  0.0076,  0.0065,  0.0154, -0.0032, -0.0028,  0.0041, -0.00, 999.9
1917,265948.000,  22.425961743, 114.211355676,   53.2260,  1,  7,  0.0076,  0.0065,  0.0154, -0.0032, -0.0028,  0.0040, -0.00, 999.9
1917,265949.000,  22.425961738, 114.211355684,   53.2259,  1,  7,  0.0076,  0.0063,  0.0154, -0.0034, -0.0027,  0.0041, -0.00, 999.9
1917,265950.000,  22.425961744, 114.211355684,   53.2248,  1,  7,  0.0076,  0.0065,  0.0154, -0.0033, -0.0029,  0.0041, -0.00, 999.9
1917,265951.000,  22.425961740, 114.211355689,   53.2248,  1,  7,  0.0076,  0.0066,  0.0154, -0.0031, -0.0029,  0.0040, -0.00, 999.9
1917,265952.000,  22.425961741, 114.211355694,   53.2273,  1,  7,  0.0075,  0.0064,  0.0154, -0.0031, -0.0026,  0.0040, -0.00, 999.9
1917,265953.000,  22.425961742, 114.211355681,   53.2239,  1,  7,  0.0076,  0.0064,  0.0154, -0.0034, -0.0027,  0.0041, -0.00, 999.9
1917,265954.000,  22.425961753, 114.211355697,   53.2260,  1,  7,  0.0076,  0.0064,  0.0154, -0.0034, -0.0029,  0.0040, -0.00, 999.9
1917,265955.000,  22.425961735, 114.211355694,   53.2254,  1,  7,  0.0075,  0.0065,  0.0154, -0.0032, -0.0027,  0.0041, -0.00, 999.9
1917,265956.000,  22.425961747, 114.211355682,   53.2295,  1,  7,  0.0076,  0.0064,  0.0154, -0.0033, -0.0030,  0.0040, -0.00, 999.9
1917,265957.000,  22.425961745, 114.211355677,   53.2248,  1,  7,  0.0075,  0.0064,  0.0154, -0.0032, -0.0026,  0.0040, -0.00, 999.9
1917,265958.000,  22.425961739, 114.211355678,   53.2262,  1,  7,  0.0076,  0.0064,  0.0154, -0.0032, -0.0029,  0.0040, -0.00, 999.9
1917,265959.000,  22.425961738, 114.211355681,   53.2242,  1,  7,  0.0076,  0.0065,  0.0154, -0.0035, -0.0027,  0.0040, -0.00, 999.9
1917,265960.000,  22.425961740, 114.211355684,   53.2244,  1,  7,  0.0075,  0.0064,  0.0154, -0.0033, -0.0027,  0.0041, -0.00, 999.9
1917,265961.000,  22.425961744, 114.211355684,   53.2249,  1,  7,  0.0076,  0.0064,  0.0154, -0.0034, -0.0026,  0.0041, -0.00, 999.9
1917,265962.000,  22.425961733, 114.211355687,   53.2235,  1,  7,  0.0075,  0.0064,  0.0154, -0.0032, -0.0027,  0.0041, -0.00, 999.9
1917,265963.000,  22.425961735, 114.211355681,   53.2239,  1,  7,  0.0075,  0.0063,  0.0154, -0.0033, -0.0027,  0.0042, -0.00, 999.9
1917,265964.000,  22.425961746, 114.211355674,   53.2228,  1,  7,  0.0076,  0.0066,  0.0154, -0.0031, -0.0029,  0.0041, -0.00, 999.9
1917,265965.000,  22.425961734, 114.211355682,   53.2226,  1,  7,  0.0077,  0.0065,  0.0154, -0.0032, -0.0030,  0.0040, -0.00, 999.9
1917,265966.000,  22.425961745, 114.211355686,   53.2240,  1,  7,  0.0075,  0.0065,  0.0154, -0.0033, -0.0027,  0.0040, -0.00, 999.9
1917,265967.000,  22.425961743, 114.211355683,   53.2252,  1,  7,  0.0076,  0.0064,  0.0154, -0.0033, -0.0028,  0.0041, -0.00, 999.9
1917,265968.000,  22.425961740, 114.211355679,   53.2258,  1,  7,  0.0076,  0.0066,  0.0154, -0.0032, -0.0028,  0.0040, -0.00, 999.9
1917,265969.000,  22.425961742, 114.211355678,   53.2228,  1,  7,  0.0076,  0.0065,  0.0154, -0.0033, -0.0029,  0.0040, -0.00, 999.9
1917,265970.000,  22.425961738, 114.211355681,   53.2214,  1,  7,  0.0076,  0.0064,  0.0154, -0.0032, -0.0026,  0.0042, -0.00, 999.9
1917,265971.000,  22.425961741, 114.211355692,   53.2254,  1,  7,  0.0077,  0.0064,  0.0154, -0.0033, -0.0029,  0.0041, -0.00, 999.9
1917,265972.000,  22.425961738, 114.211355680,   53.2238,  1,  7,  0.0076,  0.0064,  0.0154, -0.0034, -0.0028,  0.0042, -0.00, 999.9
1917,265973.000,  22.425961739, 114.211355683,   53.2272,  1,  7,  0.0076,  0.0067,  0.0154, -0.0032, -0.0027,  0.0040, -0.00, 999.9
1917,265974.000,  22.425961743, 114.211355681,   53.2263,  1,  7,  0.0076,  0.0064,  0.0154, -0.0034, -0.0027,  0.0041, -0.00, 999.9
1917,265975.000,  22.425961734, 114.211355685,   53.2247,  1,  7,  0.0076,  0.0065,  0.0154, -0.0033, -0.0028,  0.0041, -0.00, 999.9
1917,265976.000,  22.425961746, 114.211355690,   53.2237,  1,  7,  0.0076,  0.0065,  0.0154, -0.0033, -0.0028,  0.0041, -0.00, 999.9
1917,265977.000,  22.425961745, 114.211355682,   53.2209,  1,  7,  0.0077,  0.0065,  0.0154, -0.0034, -0.0028,  0.0041, -0.00, 999.9
1917,265978.000,  22.425961741, 114.211355684,   53.2244,  1,  7,  0.0076,  0.0065,  0.0154, -0.0034, -0.0027,  0.0041, -0.00, 999.9
1917,265979.000,  22.425961742, 114.211355688,   53.2261,  1,  7,  0.0075,  0.0065,  0.0154, -0.0030, -0.0029,  0.0041, -0.00, 999.9
1917,265980.000,  22.425961741, 114.211355690,   53.2255,  1,  7,  0.0076,  0.0065,  0.0154, -0.0033, -0.0027,  0.0041, -0.00, 999.9
1917,265981.000,  22.425961736, 114.211355699,   53.2248,  1,  7,  0.0076,  0.0065,  0.0154, -0.0032, -0.0027,  0.0041, -0.00, 999.9
1917,265982.000,  22.425961750, 114.211355682,   53.2260,  1,  7,  0.0076,  0.0065,  0.0154, -0.0033, -0.0029,  0.0041, -0.00, 999.9
1917,265983.000,  22.425961727, 114.211355692,   53.2236,  1,  7,  0.0076,  0.0065,  0.0154, -0.0032, -0.0027,  0.0041, -0.00, 999.9
1917,265984.000,  22.425961740, 114.211355678,   53.2245,  1,  7,  0.0076,  0.0064,  0.0154, -0.0033, -0.0029,  0.0042, -0.00, 999.9
1917,265985.000,  22.425961733, 114.211355687,   53.2246,  1,  7,  0.0076,  0.0065,  0.0154, -0.0032, -0.0026,  0.0041, -0.00, 999.9
1917,265986.000,  22.425961739, 114.211355683,   53.2239,  1,  7,  0.0076,  0.0065,  0.0154, -0.0032, -0.0027,  0.0041, -0.00, 999.9
1917,265987.000,  22.425961753, 114.211355685,   53.2239,  1,  7,  0.0075,  0.0064,  0.0154, -0.0032, -0.0027,  0.0041, -0.00, 999.9
1917,265988.000,  22.425961747, 114.211355688,   53.2242,  1,  7,  0.0076,  0.0065,  0.0154, -0.0033, -0.0026,  0.0042, -0.00, 999.9
1917,265989.000,  22.425961730, 114.211355691,   53.2240,  1,  7,  0.0076,  0.0065,  0.0154, -0.0032, -0.0027,  0.0042, -0.00, 999.9
1917,265990.000,  22.425961738, 114.211355683,   53.2233,  1,  7,  0.0075,  0.0063,  0.0154, -0.0032, -0.0028,  0.0041, -0.00, 999.9
1917,265991.000,  22.425961743, 114.211355683,   53.2212,  1,  7,  0.0076,  0.0064,  0.0154, -0.0033, -0.0028,  0.0040, -0.00, 999.9
1917,265992.000,  22.425961739, 114.211355687,   53.2248,  1,  7,  0.0076,  0.0064,  0.0154, -0.0034, -0.0025,  0.0043, -0.00, 999.9
1917,265993.000,  22.425961747, 114.211355679,   53.2243,  1,  7,  0.0076,  0.0065,  0.0154, -0.0034, -0.0026,  0.0042, -0.00, 999.9
1917,265994.000,  22.425961755, 114.211355687,   53.2250,  1,  7,  0.0076,  0.0065,  0.0154, -0.0033, -0.0027,  0.0041, -0.00, 999.9
1917,265995.000,  22.425961745, 114.211355685,   53.2231,  1,  7,  0.0076,  0.0065,  0.0155, -0.0033, -0.0026,  0.0041, -0.00, 999.9
1917,265996.000,  22.425961756, 114.211355675,   53.2231,  1,  7,  0.0076,  0.0065,  0.0154, -0.0030, -0.0027,  0.0042, -0.00, 999.9
1917,265997.000,  22.425961741, 114.211355677,   53.2206,  1,  7,  0.0076,  0.0065,  0.0154, -0.0032, -0.0028,  0.0042, -0.00, 999.9
1917,265998.000,  22.425961746, 114.211355681,   53.2212,  1,  7,  0.0076,  0.0065,  0.0154, -0.0033, -0.0027,  0.0041, -0.00, 999.9
1917,265999.000,  22.425961750, 114.211355677,   53.2224,  1,  7,  0.0075,  0.0064,  0.0154, -0.0033, -0.0027,  0.0041, -0.00, 999.9
1917,266000.000,  22.425961734, 114.211355688,   53.2228,  1,  7,  0.0076,  0.0065,  0.0154, -0.0033, -0.0027,  0.0042, -0.00, 999.9
1917,266001.000,  22.425961748, 114.211355682,   53.2238,  1,  7,  0.0076,  0.0065,  0.0154, -0.0032, -0.0028,  0.0042, -0.00, 999.9
1917,266002.000,  22.425961736, 114.211355688,   53.2227,  1,  7,  0.0076,  0.0064,  0.0154, -0.0032, -0.0028,  0.0042, -0.00, 999.9
1917,266003.000,  22.425961734, 114.211355681,   53.2210,  1,  7,  0.0076,  0.0065,  0.0154, -0.0033, -0.0027,  0.0042, -0.00, 999.9
1917,266004.000,  22.425961746, 114.211355683,   53.2222,  1,  7,  0.0076,  0.0065,  0.0154, -0.0033, -0.0027,  0.0042, -0.00, 999.9
1917,266005.000,  22.425961730, 114.211355689,   53.2235,  1,  7,  0.0077,  0.0064,  0.0154, -0.0035, -0.0028,  0.0042, -0.00, 999.9
1917,266006.000,  22.425961738, 114.211355684,   53.2230,  1,  7,  0.0076,  0.0065,  0.0154, -0.0033, -0.0029,  0.0042, -0.00, 999.9
1917,266007.000,  22.425961732, 114.211355690,   53.2214,  1,  7,  0.0076,  0.0064,  0.0154, -0.0034, -0.0028,  0.0042, -0.00, 999.9
1917,266008.000,  22.425961746, 114.211355684,   53.2245,  1,  7,  0.0076,  0.0065,  0.0154, -0.0031, -0.0027,  0.0042, -0.00, 999.9
1917,266009.000,  22.425961747, 114.211355683,   53.2190,  1,  7,  0.0075,  0.0065,  0.0154, -0.0032, -0.0025,  0.0042, -0.00, 999.9
1917,266010.000,  22.425961741, 114.211355692,   53.2235,  1,  7,  0.0077,  0.0065,  0.0154, -0.0035, -0.0027,  0.0042, -0.00, 999.9
1917,266011.000,  22.425961743, 114.211355692,   53.2245,  1,  7,  0.0077,  0.0064,  0.0154, -0.0033, -0.0029,  0.0042, -0.00, 999.9
1917,266012.000,  22.425961734, 114.211355684,   53.2251,  1,  7,  0.0076,  0.0065,  0.0154, -0.0032, -0.0028,  0.0042, -0.00, 999.9
1917,266013.000,  22.425961744, 114.211355684,   53.2218,  1,  7,  0.0076,  0.0066,  0.0155, -0.0032, -0.0027,  0.0042, -0.00, 999.9
1917,266014.000,  22.425961741, 114.211355680,   53.2238,  1,  7,  0.0076,  0.0065,  0.0154, -0.0031, -0.0028,  0.0042, -0.00, 999.9
1917,266015.000,  22.425961740, 114.211355683,   53.2217,  1,  7,  0.0076,  0.0065,  0.0154, -0.0032, -0.0027,  0.0042, -0.00, 999.9
1917,266016.000,  22.425961742, 114.211355688,   53.2214,  1,  7,  0.0076,  0.0065,  0.0154, -0.0032, -0.0025,  0.0041, -0.00, 999.9
1917,266017.000,  22.425961749, 114.211355686,   53.2230,  1,  7,  0.0076,  0.0065,  0.0154, -0.0032, -0.0029,  0.0042, -0.00, 999.9
1917,266018.000,  22.425961739, 114.211355685,   53.2229,  1,  7,  0.0076,  0.0066,  0.0154, -0.0033, -0.0027,  0.0042, -0.00, 999.9
1917,266019.000,  22.425961735, 114.211355682,   53.2242,  1,  7,  0.0076,  0.0066,  0.0154, -0.0033, -0.0029,  0.0043, -0.00, 999.9
1917,266020.000,  22.425961737, 114.211355691,   53.2233,  1,  7,  0.0076,  0.0066,  0.0154, -0.0031, -0.0027,  0.0043, -0.00, 999.9
1917,266021.000,  22.425961735, 114.211355689,   53.2235,  1,  7,  0.0076,  0.0063,  0.0154, -0.0035, -0.0027,  0.0043, -0.00, 999.9
1917,266022.000,  22.425961736, 114.211355683,   53.2215,  1,  7,  0.0076,  0.0065,  0.0154, -0.0030, -0.0027,  0.0042, -0.00, 999.9
1917,266023.000,  22.425961763, 114.211355680,   53.2208,  1,  7,  0.0076,  0.0064,  0.0154, -0.0033, -0.0026,  0.0043, -0.00, 999.9
1917,266024.000,  22.425961742, 114.211355691,   53.2227,  1,  7,  0.0075,  0.0064,  0.0154, -0.0032, -0.0027,  0.0043, -0.00, 999.9
1917,266025.000,  22.425961731, 114.211355682,   53.2230,  1,  7,  0.0076,  0.0065,  0.0155, -0.0032, -0.0027,  0.0043, -0.00, 999.9
1917,266026.000,  22.425961751, 114.211355681,   53.2253,  1,  7,  0.0076,  0.0064,  0.0155, -0.0032, -0.0026,  0.0042, -0.00, 999.9
1917,266027.000,  22.425961743, 114.211355678,   53.2248,  1,  7,  0.0075,  0.0065,  0.0154, -0.0032, -0.0026,  0.0043, -0.00, 999.9
1917,266028.000,  22.425961735, 114.211355689,   53.2229,  1,  7,  0.0076,  0.0064,  0.0154, -0.0034, -0.0025,  0.0044, -0.00, 999.9
1917,266029.000,  22.425961741, 114.211355676,   53.2240,  1,  7,  0.0076,  0.0065,  0.0154, -0.0032, -0.0028,  0.0042, -0.00, 999.9
1917,266030.000,  22.425961747, 114.211355688,   53.2231,  1,  7,  0.0076,  0.0064,  0.0154, -0.0032, -0.0027,  0.0043, -0.00, 999.9
1917,266031.000,  22.425961749, 114.211355677,   53.2250,  1,  7,  0.0076,  0.0066,  0.0154, -0.0032, -0.0027,  0.0042, -0.00, 999.9
1917,266032.000,  22.425961741, 114.211355687,   53.2230,  1,  7,  0.0076,  0.0062,  0.0154, -0.0034, -0.0027,  0.0043, -0.00, 999.9
1917,266033.000,  22.425961747, 114.211355687,   53.2248,  1,  7,  0.0076,  0.0066,  0.0154, -0.0031, -0.0029,  0.0042, -0.00, 999.9
1917,266034.000,  22.425961750, 114.211355686,   53.2264,  1,  7,  0.0075,  0.0065,  0.0155, -0.0031, -0.0025,  0.0043, -0.00, 999.9
1917,266035.000,  22.425961742, 114.211355688,   53.2248,  1,  7,  0.0076,  0.0065,  0.0155, -0.0031, -0.0027,  0.0042, -0.00, 999.9
1917,266036.000,  22.425961737, 114.211355681,   53.2215,  1,  7,  0.0077,  0.0065,  0.0154, -0.0033, -0.0029,  0.0042, -0.00, 999.9
1917,266037.000,  22.425961747, 114.211355692,   53.2246,  1,  7,  0.0076,  0.0064,  0.0155, -0.0034, -0.0025,  0.0043, -0.00, 999.9
1917,266038.000,  22.425961739, 114.211355689,   53.2262,  1,  7,  0.0076,  0.0064,  0.0154, -0.0033, -0.0026,  0.0043, -0.00, 999.9
1917,266039.000,  22.425961742, 114.211355684,   53.2219,  1,  7,  0.0076,  0.0065,  0.0154, -0.0031, -0.0026,  0.0042, -0.00, 999.9
1917,266040.000,  22.425961743, 114.211355683,   53.2257,  1,  7,  0.0076,  0.0064,  0.0154, -0.0035, -0.0025,  0.0044, -0.00, 999.9
1917,266041.000,  22.425961739, 114.211355682,   53.2245,  1,  7,  0.0076,  0.0065,  0.0154, -0.0033, -0.0028,  0.0042, -0.00, 999.9
1917,266042.000,  22.425961739, 114.211355683,   53.2239,  1,  7,  0.0076,  0.0065,  0.0154, -0.0032, -0.0026,  0.0043, -0.00, 999.9
1917,266043.000,  22.425961741, 114.211355681,   53.2244,  1,  7,  0.0076,  0.0065,  0.0155, -0.0033, -0.0025,  0.0043, -0.00, 999.9
1917,266044.000,  22.425961752, 114.211355676,   53.2243,  1,  7,  0.0076,  0.0065,  0.0155, -0.0032, -0.0025,  0.0043, -0.00, 999.9
1917,266045.000,  22.425961741, 114.211355688,   53.2240,  1,  7,  0.0076,  0.0064,  0.0154, -0.0033, -0.0027,  0.0043, -0.00, 999.9
1917,266046.000,  22.425961741, 114.211355684,   53.2258,  1,  7,  0.0077,  0.0066,  0.0154, -0.0032, -0.0029,  0.0043, -0.00, 999.9
1917,266047.000,  22.425961754, 114.211355693,   53.2252,  1,  7,  0.0076,  0.0065,  0.0155, -0.0032, -0.0028,  0.0043, -0.00, 999.9
1917,266048.000,  22.425961742, 114.211355675,   53.2237,  1,  7,  0.0076,  0.0066,  0.0155, -0.0031, -0.0027,  0.0043, -0.00, 999.9
1917,266049.000,  22.425961752, 114.211355679,   53.2237,  1,  7,  0.0076,  0.0065,  0.0154, -0.0032, -0.0025,  0.0043, -0.00, 999.9
1917,266050.000,  22.425961760, 114.211355676,   53.2230,  1,  7,  0.0076,  0.0065,  0.0154, -0.0035, -0.0026,  0.0044, -0.00, 999.9
1917,266051.000,  22.425961747, 114.211355677,   53.2219,  1,  7,  0.0075,  0.0065,  0.0155, -0.0032, -0.0026,  0.0044, -0.00, 999.9
1917,266052.000,  22.425961742, 114.211355674,   53.2242,  1,  7,  0.0076,  0.0065,  0.0155, -0.0031, -0.0026,  0.0043, -0.00, 999.9
1917,266053.000,  22.425961741, 114.211355686,   53.2247,  1,  7,  0.0076,  0.0065,  0.0154, -0.0031, -0.0027,  0.0042, -0.00, 999.9
1917,266054.000,  22.425961743, 114.211355681,   53.2240,  1,  7,  0.0077,  0.0066,  0.0155, -0.0030, -0.0027,  0.0042, -0.00, 999.9
1917,266055.000,  22.425961744, 114.211355685,   53.2238,  1,  7,  0.0075,  0.0065,  0.0154, -0.0033, -0.0026,  0.0044, -0.00, 999.9
1917,266056.000,  22.425961735, 114.211355686,   53.2249,  1,  7,  0.0076,  0.0066,  0.0155, -0.0032, -0.0027,  0.0043, -0.00, 999.9
1917,266057.000,  22.425961743, 114.211355682,   53.2265,  1,  7,  0.0076,  0.0064,  0.0154, -0.0033, -0.0027,  0.0043, -0.00, 999.9
1917,266058.000,  22.425961745, 114.211355689,   53.2249,  1,  7,  0.0076,  0.0065,  0.0155, -0.0034, -0.0025,  0.0044, -0.00, 999.9
1917,266059.000,  22.425961740, 114.211355689,   53.2278,  1,  7,  0.0076,  0.0066,  0.0155, -0.0033, -0.0025,  0.0044, -0.00, 999.9
1917,266060.000,  22.425961736, 114.211355689,   53.2253,  1,  7,  0.0076,  0.0065,  0.0154, -0.0033, -0.0027,  0.0044, -0.00, 999.9
1917,266061.000,  22.425961743, 114.211355696,   53.2271,  1,  7,  0.0076,  0.0064,  0.0154, -0.0031, -0.0027,  0.0044, -0.00, 999.9
1917,266062.000,  22.425961743, 114.211355692,   53.2249,  1,  7,  0.0076,  0.0065,  0.0154, -0.0031, -0.0028,  0.0044, -0.00, 999.9
1917,266063.000,  22.425961745, 114.211355680,   53.2231,  1,  7,  0.0076,  0.0064,  0.0155, -0.0032, -0.0025,  0.0043, -0.00, 999.9
1917,266064.000,  22.425961738, 114.211355681,   53.2260,  1,  7,  0.0076,  0.0065,  0.0155, -0.0032, -0.0026,  0.0043, -0.00, 999.9
1917,266065.000,  22.425961731, 114.211355677,   53.2250,  1,  7,  0.0076,  0.0065,  0.0155, -0.0031, -0.0026,  0.0043, -0.00, 999.9
1917,266066.000,  22.425961737, 114.211355686,   53.2248,  1,  7,  0.0076,  0.0065,  0.0154, -0.0034, -0.0026,  0.0043, -0.00, 999.9
1917,266067.000,  22.425961742, 114.211355696,   53.2258,  1,  7,  0.0076,  0.0065,  0.0154, -0.0035, -0.0026,  0.0045, -0.00, 999.9
1917,266068.000,  22.425961749, 114.211355685,   53.2270,  1,  7,  0.0076,  0.0065,  0.0154, -0.0032, -0.0028,  0.0043, -0.00, 999.9
1917,266069.000,  22.425961749, 114.211355680,   53.2241,  1,  7,  0.0077,  0.0066,  0.0155, -0.0034, -0.0027,  0.0044, -0.00, 999.9
1917,266070.000,  22.425961742, 114.211355681,   53.2235,  1,  7,  0.0076,  0.0064,  0.0155, -0.0033, -0.0025,  0.0044, -0.00, 999.9
1917,266071.000,  22.425961752, 114.211355677,   53.2253,  1,  7,  0.0076,  0.0065,  0.0155, -0.0032, -0.0023,  0.0044, -0.00, 999.9
1917,266072.000,  22.425961744, 114.211355683,   53.2243,  1,  7,  0.0076,  0.0065,  0.0155, -0.0033, -0.0025,  0.0044, -0.00, 999.9
1917,266073.000,  22.425961743, 114.211355682,   53.2257,  1,  7,  0.0076,  0.0065,  0.0155, -0.0032, -0.0026,  0.0043, -0.00, 999.9
1917,266074.000,  22.425961747, 114.211355695,   53.2270,  1,  7,  0.0076,  0.0064,  0.0154, -0.0032, -0.0027,  0.0043, -0.00, 999.9
1917,266075.000,  22.425961750, 114.211355682,   53.2264,  1,  7,  0.0075,  0.0066,  0.0155, -0.0031, -0.0025,  0.0044, -0.00, 999.9
1917,266076.000,  22.425961743, 114.211355678,   53.2267,  1,  7,  0.0077,  0.0065,  0.0155, -0.0035, -0.0027,  0.0044, -0.00, 999.9
1917,266077.000,  22.425961745, 114.211355689,   53.2274,  1,  7,  0.0076,  0.0065,  0.0155, -0.0032, -0.0026,  0.0043, -0.00, 999.9
1917,266078.000,  22.425961748, 114.211355685,   53.2262,  1,  7,  0.0076,  0.0065,  0.0155, -0.0032, -0.0026,  0.0043, -0.00, 999.9
1917,266079.000,  22.425961744, 114.211355685,   53.2269,  1,  7,  0.0076,  0.0065,  0.0155, -0.0032, -0.0025,  0.0044, -0.00, 999.9
1917,266080.000,  22.425961756, 114.211355678,   53.2256,  1,  7,  0.0076,  0.0065,  0.0155, -0.0032, -0.0026,  0.0044, -0.00, 999.9
1917,266081.000,  22.425961747, 114.211355686,   53.2256,  1,  7,  0.0076,  0.0065,  0.0155, -0.0031, -0.0026,  0.0043, -0.00, 999.9
1917,266082.000,  22.425961751, 114.211355683,   53.2278,  1,  7,  0.0076,  0.0065,  0.0155, -0.0032, -0.0026,  0.0044, -0.00, 999.9
1917,266083.000,  22.425961745, 114.211355682,   53.2280,  1,  7,  0.0076,  0.0065,  0.0154, -0.0033, -0.0026,  0.0044, -0.00, 999.9
1917,266084.000,  22.425961743, 114.211355688,   53.2285,  1,  7,  0.0076,  0.0065,  0.0155, -0.0033, -0.0026,  0.0043, -0.00, 999.9
1917,266085.000,  22.425961748, 114.211355677,   53.2258,  1,  7,  0.0076,  0.0065,  0.0155, -0.0032, -0.0025,  0.0045, -0.00, 999.9
1917,266086.000,  22.425961745, 114.211355691,   53.2264,  1,  7,  0.0076,  0.0065,  0.0155, -0.0031, -0.0027,  0.0044, -0.00, 999.9
1917,266087.000,  22.425961750, 114.211355683,   53.2286,  1,  7,  0.0075,  0.0063,  0.0155, -0.0031, -0.0025,  0.0044, -0.00, 999.9
1917,266088.000,  22.425961747, 114.211355679,   53.2281,  1,  7,  0.0076,  0.0065,  0.0154, -0.0033, -0.0027,  0.0045, -0.00, 999.9
1917,266089.000,  22.425961740, 114.211355687,   53.2261,  1,  7,  0.0076,  0.0066,  0.0155, -0.0031, -0.0025,  0.0044, -0.00, 999.9
1917,266090.000,  22.425961749, 114.211355680,   53.2261,  1,  7,  0.0077,  0.0066,  0.0155, -0.0032, -0.0028,  0.0044, -0.00, 999.9
1917,266091.000,  22.425961747, 114.211355683,   53.2268,  1,  7,  0.0075,  0.0065,  0.0155, -0.0032, -0.0024,  0.0044, -0.00, 999.9
1917,266092.000,  22.425961740, 114.211355686,   53.2280,  1,  7,  0.0075,  0.0065,  0.0155, -0.0030, -0.0026,  0.0044, -0.00, 999.9
1917,266093.000,  22.425961750, 114.211355684,   53.2250,  1,  7,  0.0076,  0.0065,  0.0155, -0.0031, -0.0026,  0.0045, -0.00, 999.9
1917,266094.000,  22.425961743, 114.211355686,   53.2264,  1,  7,  0.0077,  0.0065,  0.0155, -0.0032, -0.0027,  0.0044, -0.00, 999.9
1917,266095.000,  22.425961731, 114.211355688,   53.2260,  1,  7,  0.0076,  0.0066,  0.0155, -0.0031, -0.0026,  0.0044, -0.00, 999.9
1917,266096.000,  22.425961743, 114.211355687,   53.2250,  1,  7,  0.0076,  0.0064,  0.0155, -0.0033, -0.0026,  0.0045, -0.00, 999.9
1917,266097.000,  22.425961752, 114.211355690,   53.2248,  1,  7,  0.0076,  0.0065,  0.0155, -0.0031, -0.0027,  0.0045, -0.00, 999.9
1917,266098.000,  22.425961748, 114.211355682,   53.2256,  1,  7,  0.0076,  0.0065,  0.0155, -0.0033, -0.0026,  0.0045, -0.00, 999.9
1917,266099.000,  22.425961739, 114.211355688,   53.2258,  1,  7,  0.0076,  0.0065,  0.0155, -0.0032, -0.0027,  0.0045, -0.00, 999.9
1917,266100.000,  22.425961747, 114.211355681,   53.2252,  1,  7,  0.0076,  0.0066,  0.0155, -0.0032, -0.0026,  0.0045, -0.00, 999.9
1917,266101.000,  22.425961743, 114.211355684,   53.2269,  1,  7,  0.0076,  0.0065,  0.0155, -0.0031, -0.0026,  0.0044, -0.00, 999.9
1917,266102.000,  22.425961747, 114.211355678,   53.2252,  1,  7,  0.0076,  0.0066,  0.0155, -0.0033, -0.0026,  0.0045, -0.00, 999.9
1917,266103.000,  22.425961750, 114.211355680,   53.2267,  1,  7,  0.0076,  0.0066,  0.0155, -0.0033, -0.0024,  0.0045, -0.00, 999.9
1917,266104.000,  22.425961744, 114.211355687,   53.2264,  1,  7,  0.0076,  0.0066,  0.0155, -0.0031, -0.0026,  0.0045, -0.00, 999.9
1917,266105.000,  22.425961741, 114.211355688,   53.2264,  1,  7,  0.0077,  0.0066,  0.0155, -0.0033, -0.0026,  0.0045, -0.00, 999.9
1917,266106.000,  22.425961744, 114.211355679,   53.2263,  1,  7,  0.0077,  0.0066,  0.0155, -0.0031, -0.0026,  0.0045, -0.00, 999.9
1917,266107.000,  22.425961747, 114.211355681,   53.2260,  1,  7,  0.0075,  0.0066,  0.0155, -0.0031, -0.0026,  0.0044, -0.00, 999.9
1917,266108.000,  22.425961748, 114.211355676,   53.2262,  1,  7,  0.0076,  0.0064,  0.0155, -0.0033, -0.0026,  0.0045, -0.00, 999.9
1917,266109.000,  22.425961754, 114.211355683,   53.2267,  1,  7,  0.0076,  0.0064,  0.0155, -0.0033, -0.0026,  0.0044, -0.00, 999.9
1917,266110.000,  22.425961743, 114.211355685,   53.2247,  1,  7,  0.0076,  0.0065,  0.0155, -0.0031, -0.0027,  0.0044, -0.00, 999.9
1917,266111.000,  22.425961739, 114.211355684,   53.2253,  1,  7,  0.0075,  0.0065,  0.0155, -0.0032, -0.0023,  0.0045, -0.00, 999.9
1917,266112.000,  22.425961746, 114.211355684,   53.2273,  1,  7,  0.0076,  0.0065,  0.0155, -0.0033, -0.0028,  0.0045, -0.00, 999.9
1917,266113.000,  22.425961730, 114.211355689,   53.2277,  1,  7,  0.0076,  0.0065,  0.0155, -0.0032, -0.0026,  0.0045, -0.00, 999.9
1917,266114.000,  22.425961742, 114.211355679,   53.2264,  1,  7,  0.0076,  0.0065,  0.0155, -0.0033, -0.0024,  0.0045, -0.00, 999.9
1917,266115.000,  22.425961748, 114.211355681,   53.2255,  1,  7,  0.0076,  0.0066,  0.0155, -0.0033, -0.0026,  0.0044, -0.00, 999.9
1917,266116.000,  22.425961744, 114.211355686,   53.2256,  1,  7,  0.0076,  0.0064,  0.0155, -0.0033, -0.0025,  0.0046, -0.00, 999.9
1917,266117.000,  22.425961747, 114.211355669,   53.2288,  1,  7,  0.0075,  0.0065,  0.0155, -0.0030, -0.0025,  0.0046, -0.00, 999.9
1917,266118.000,  22.425961739, 114.211355685,   53.2281,  1,  7,  0.0076,  0.0064,  0.0155, -0.0032, -0.0023,  0.0044, -0.00, 999.9
1917,266119.000,  22.425961742, 114.211355685,   53.2267,  1,  7,  0.0076,  0.0066,  0.0155, -0.0033, -0.0026,  0.0045, -0.00, 999.9
1917,266120.000,  22.425961741, 114.211355684,   53.2286,  1,  7,  0.0076,  0.0065,  0.0155, -0.0034, -0.0026,  0.0046, -0.00, 999.9
1917,266121.000,  22.425961746, 114.211355683,   53.2264,  1,  7,  0.0076,  0.0064,  0.0155, -0.0032, -0.0027,  0.0045, -0.00, 999.9
1917,266122.000,  22.425961739, 114.211355683,   53.2266,  1,  7,  0.0077,  0.0065,  0.0155, -0.0033, -0.0025,  0.0045, -0.00, 999.9
1917,266123.000,  22.425961752, 114.211355681,   53.2268,  1,  7,  0.0076,  0.0065,  0.0155, -0.0030, -0.0027,  0.0044, -0.00, 999.9
1917,266124.000,  22.425961739, 114.211355684,   53.2262,  1,  7,  0.0076,  0.0066,  0.0155, -0.0033, -0.0025,  0.0046, -0.00, 999.9
1917,266125.000,  22.425961739, 114.211355681,   53.2270,  1,  7,  0.0077,  0.0065,  0.0155, -0.0031, -0.0026,  0.0044, -0.00, 999.9
1917,266126.000,  22.425961741, 114.211355680,   53.2261,  1,  7,  0.0076,  0.0064,  0.0155, -0.0031, -0.0026,  0.0046, -0.00, 999.9
1917,266127.000,  22.425961739, 114.211355675,   53.2257,  1,  7,  0.0076,  0.0066,  0.0155, -0.0032, -0.0025,  0.0046, -0.00, 999.9
1917,266128.000,  22.425961742, 114.211355685,   53.2250,  1,  7,  0.0077,  0.0066,  0.0155, -0.0031, -0.0026,  0.0045, -0.00, 999.9
1917,266129.000,  22.425961749, 114.211355674,   53.2292,  1,  7,  0.0077,  0.0065,  0.0155, -0.0034, -0.0025,  0.0046, -0.00, 999.9
1917,266130.000,  22.425961739, 114.211355690,   53.2263,  1,  7,  0.0077,  0.0066,  0.0155, -0.0032, -0.0025,  0.0045, -0.00, 999.9
1917,266131.000,  22.425961742, 114.211355681,   53.2268,  1,  7,  0.0076,  0.0066,  0.0155, -0.0031, -0.0024,  0.0044, -0.00, 999.9
1917,266132.000,  22.425961747, 114.211355684,   53.2291,  1,  7,  0.0076,  0.0066,  0.0155, -0.0032, -0.0025,  0.0045, -0.00, 999.9
1917,266133.000,  22.425961742, 114.211355686,   53.2279,  1,  7,  0.0076,  0.0065,  0.0155, -0.0033, -0.0024,  0.0046, -0.00, 999.9
1917,266134.000,  22.425961745, 114.211355680,   53.2271,  1,  7,  0.0076,  0.0065,  0.0155, -0.0032, -0.0024,  0.0045, -0.00, 999.9
1917,266135.000,  22.425961742, 114.211355681,   53.2285,  1,  7,  0.0076,  0.0065,  0.0155, -0.0032, -0.0026,  0.0045, -0.00, 999.9
1917,266136.000,  22.425961747, 114.211355674,   53.2274,  1,  7,  0.0077,  0.0065,  0.0155, -0.0033, -0.0027,  0.0046, -0.00, 999.9
1917,266137.000,  22.425961750, 114.211355688,   53.2280,  1,  7,  0.0076,  0.0065,  0.0155, -0.0033, -0.0024,  0.0046, -0.00, 999.9
1917,266138.000,  22.425961744, 114.211355678,   53.2286,  1,  7,  0.0077,  0.0066,  0.0155, -0.0032, -0.0026,  0.0046, -0.00, 999.9
1917,266139.000,  22.425961745, 114.211355683,   53.2263,  1,  7,  0.0077,  0.0066,  0.0155, -0.0035, -0.0026,  0.0045, -0.00, 999.9
1917,266140.000,  22.425961749, 114.211355671,   53.2261,  1,  7,  0.0077,  0.0066,  0.0155, -0.0034, -0.0025,  0.0046, -0.00, 999.9
1917,266141.000,  22.425961742, 114.211355682,   53.2283,  1,  7,  0.0076,  0.0066,  0.0155, -0.0032, -0.0026,  0.0046, -0.00, 999.9
1917,266142.000,  22.425961740, 114.211355687,   53.2270,  1,  7,  0.0076,  0.0066,  0.0155, -0.0031, -0.0025,  0.0046, -0.00, 999.9
1917,266143.000,  22.425961737, 114.211355682,   53.2263,  1,  7,  0.0076,  0.0066,  0.0155, -0.0031, -0.0023,  0.0045, -0.00, 999.9
1917,266144.000,  22.425961741, 114.211355683,   53.2277,  1,  7,  0.0076,  0.0065,  0.0155, -0.0032, -0.0025,  0.0046, -0.00, 999.9
1917,266145.000,  22.425961740, 114.211355680,   53.2247,  1,  7,  0.0076,  0.0065,  0.0155, -0.0031, -0.0026,  0.0045, -0.00, 999.9
1917,266146.000,  22.425961746, 114.211355670,   53.2288,  1,  7,  0.0076,  0.0066,  0.0155, -0.0032, -0.0025,  0.0045, -0.00, 999.9
1917,266147.000,  22.425961736, 114.211355682,   53.2297,  1,  7,  0.0076,  0.0065,  0.0155, -0.0033, -0.0025,  0.0046, -0.00, 999.9
1917,266148.000,  22.425961740, 114.211355690,   53.2270,  1,  7,  0.0076,  0.0066,  0.0155, -0.0032, -0.0026,  0.0046, -0.00, 999.9
1917,266149.000,  22.425961757, 114.211355685,   53.2265,  1,  7,  0.0076,  0.0065,  0.0155, -0.0033, -0.0027,  0.0046, -0.00, 999.9
1917,266150.000,  22.425961734, 114.211355682,   53.2265,  1,  7,  0.0076,  0.0064,  0.0155, -0.0033, -0.0026,  0.0046, -0.00, 999.9
1917,266151.000,  22.425961740, 114.211355689,   53.2282,  1,  7,  0.0076,  0.0066,  0.0155, -0.0033, -0.0024,  0.0046, -0.00, 999.9
1917,266152.000,  22.425961734, 114.211355682,   53.2284,  1,  7,  0.0077,  0.0065,  0.0155, -0.0032, -0.0027,  0.0046, -0.00, 999.9
1917,266153.000,  22.425961746, 114.211355687,   53.2292,  1,  7,  0.0076,  0.0066,  0.0155, -0.0032, -0.0024,  0.0047, -0.00, 999.9
1917,266154.000,  22.425961751, 114.211355684,   53.2273,  1,  7,  0.0076,  0.0065,  0.0155, -0.0032, -0.0024,  0.0046, -0.00, 999.9
1917,266155.000,  22.425961751, 114.211355678,   53.2288,  1,  7,  0.0077,  0.0065,  0.0155, -0.0035, -0.0023,  0.0047, -0.00, 999.9
1917,266156.000,  22.425961742, 114.211355682,   53.2283,  1,  7,  0.0076,  0.0065,  0.0155, -0.0031, -0.0025,  0.0046, -0.00, 999.9
1917,266157.000,  22.425961736, 114.211355682,   53.2281,  1,  7,  0.0077,  0.0066,  0.0155, -0.0032, -0.0028,  0.0046, -0.00, 999.9
1917,266158.000,  22.425961752, 114.211355685,   53.2286,  1,  7,  0.0076,  0.0066,  0.0156, -0.0029, -0.0023,  0.0047, -0.00, 999.9
1917,266159.000,  22.425961745, 114.211355680,   53.2288,  1,  7,  0.0077,  0.0065,  0.0155, -0.0033, -0.0027,  0.0046, -0.00, 999.9
1917,266160.000,  22.425961751, 114.211355684,   53.2269,  1,  7,  0.0076,  0.0065,  0.0155, -0.0032, -0.0026,  0.0046, -0.00, 999.9
1917,266161.000,  22.425961756, 114.211355682,   53.2289,  1,  7,  0.0076,  0.0066,  0.0155, -0.0033, -0.0023,  0.0046, -0.00, 999.9
1917,266162.000,  22.425961750, 114.211355677,   53.2268,  1,  7,  0.0077,  0.0065,  0.0155, -0.0033, -0.0026,  0.0046, -0.00, 999.9
1917,266163.000,  22.425961737, 114.211355683,   53.2274,  1,  7,  0.0076,  0.0065,  0.0155, -0.0032, -0.0024,  0.0047, -0.00, 999.9
1917,266164.000,  22.425961742, 114.211355680,   53.2313,  1,  7,  0.0076,  0.0066,  0.0155, -0.0032, -0.0025,  0.0046, -0.00, 999.9
1917,266165.000,  22.425961746, 114.211355677,   53.2282,  1,  7,  0.0076,  0.0065,  0.0155, -0.0031, -0.0025,  0.0046, -0.00, 999.9
1917,266166.000,  22.425961756, 114.211355677,   53.2275,  1,  7,  0.0077,  0.0066,  0.0155, -0.0033, -0.0023,  0.0047, -0.00, 999.9
1917,266167.000,  22.425961743, 114.211355685,   53.2277,  1,  7,  0.0076,  0.0066,  0.0155, -0.0033, -0.0024,  0.0046, -0.00, 999.9
1917,266168.000,  22.425961740, 114.211355687,   53.2284,  1,  7,  0.0076,  0.0065,  0.0155, -0.0031, -0.0025,  0.0046, -0.00, 999.9
1917,266169.000,  22.425961737, 114.211355681,   53.2302,  1,  7,  0.0076,  0.0064,  0.0155, -0.0033, -0.0025,  0.0046, -0.00, 999.9
1917,266170.000,  22.425961744, 114.211355688,   53.2288,  1,  7,  0.0076,  0.0066,  0.0155, -0.0031, -0.0027,  0.0047, -0.00, 999.9
1917,266171.000,  22.425961753, 114.211355681,   53.2294,  1,  7,  0.0076,  0.0065,  0.0155, -0.0033, -0.0026,  0.0047, -0.00, 999.9
1917,266172.000,  22.425961746, 114.211355680,   53.2303,  1,  7,  0.0077,  0.0066,  0.0155, -0.0033, -0.0026,  0.0046, -0.00, 999.9
