     3.02           OBSERVATION DATA    M: Mixed            RINEX VERSION / TYPE
RTKCONV demo5 b33c                      20200603 074801 UTC PGM / RUN BY / DATE 
log: C:\Users\Ivan_PolyU_Dktp\Dropbox\HUAWEI Exp\2020_06_0  COMMENT             
format: u-blox                                              COMMENT             
                                                            MARKER NAME         
                                                            MARKER NUMBER       
                                                            MARKER TYPE         
                                                            OBSERVER / AGENCY   
                                                            REC # / TYPE / VERS 
                                                            ANT # / TYPE        
 -2418078.8488  5386070.4273  2405174.1501                  APPROX POSITION XYZ 
        0.0000        0.0000        0.0000                  ANTENNA: DELTA H/E/N
G    8 C1C L1C D1C S1C C2L L2L D2L S2L                      SYS / # / OBS TYPES 
R    8 C1C L1C D1C S1C C2C L2C D2C S2C                      SYS / # / OBS TYPES 
E    8 C1C L1C D1C S1C C7Q L7Q D7Q S7Q                      SYS / # / OBS TYPES 
J    8 C1C L1C D1C S1C C2L L2L D2L S2L                      SYS / # / OBS TYPES 
C    8 C1I L1I D1I S1I C7I L7I D7I S7I                      SYS / # / OBS TYPES 
  2020     6     3     3     2   27.0040000     GPS         TIME OF FIRST OBS   
  2020     6     3     3    18   52.0050000     GPS         TIME OF LAST OBS    
G                                                           SYS / PHASE SHIFT   
R                                                           SYS / PHASE SHIFT   
E                                                           SYS / PHASE SHIFT   
J                                                           SYS / PHASE SHIFT   
C                                                           SYS / PHASE SHIFT   
  0                                                         GLONASS SLOT / FRQ #
 C1C    0.000 C1P    0.000 C2C    0.000 C2P    0.000        GLONASS COD/PHS/BIS 
                                                            END OF HEADER       
> 2020  6  3  3  2 27.0040000  0 21                     
E15  24130320.902 1 126805698.482 1      -662.797          47.000    24130327.622 1  97162828.83511      -507.693          46.000  
G11  21539962.233 1 113193261.194 1     -1998.035          45.000                                                                  
G22  25362870.829 2 133282794.365 5       780.965          31.000                                                                  
G 7  21793914.334 1 114527786.984 2       280.780          39.000    21793914.593 1  89242437.306 4       218.731          35.000  
E14  24515547.550 1 128830084.644 2      3918.616          42.000    24515553.231 1  98713974.13012      3002.430          41.000  
G 3  26201388.472 9               9       922.000          24.000                                                                  
C23  24699514.992 1 128616849.443 1     -3076.278          47.000                                                                  
C27  23099167.926 1 120283429.853 1      -347.988          49.000                                                                  
C 8  38008476.738 1 197920117.747 1       145.293          42.000    38008471.687 1 153044367.188 1       112.385          44.000  
C28  23798624.421 1 123925679.287 1     -2987.150          47.000                                                                  
C 7  37692457.704 1 196274514.949 1      -541.256          44.000    37692453.635 1 151771889.172 1      -418.436          43.000  
C13  39082267.127 1 203511606.859 3       339.673          37.000    39082272.417 1 157368118.17314       262.572          35.000  
R12  20901667.898 4 111652957.691 1       674.963          48.000    20901671.273 4  86841202.021 1       524.966          45.000  
R11  21727385.218 4 116104552.674 1     -2645.436          47.000    21727387.133 4  90303548.686 1     -2057.656          42.000  
J 7  37641950.747 1 197809804.109 2     -1046.443          41.000    37641953.999 1 154137516.558 1      -815.258          45.000  
G 8  23380337.249 1 122864514.455 3     -3352.615          35.000    23380344.892 2               6     -2612.768          31.000  
G 1  21666201.814 1 113856650.473 1       465.520          45.000    21666204.282 1  88719481.831 1       362.774          44.000  
E30  23940375.329 1 125807547.944 1      -890.535          45.000    23940382.022 1  96397996.768 1      -682.352          46.000  
J 2  38629195.901 1 202997807.186 1       116.263          44.000    38629198.420 1 158180096.235 1        90.628          44.000  
J 3  40388823.373 1 212244698.861 1     -1730.669          44.000    40388824.089 1 165385510.891 1     -1348.855          43.000  
G 9                                                                  25038039.140 4               7     -2523.956          30.000  
> 2020  6  3  3  2 28.0040000  0 21                     
E15  24130447.314 1 126806361.797 1      -664.136          47.000    24130453.883 1  97163337.098 1      -508.802          46.000  
G11  21540342.637 1 113195259.977 1     -1999.605          45.000                                                                  
G22  25362722.267 2               6       779.644          31.000                                                                  
G 7  21793861.024 1 114527506.943 3       278.991          39.000    21793861.208 1  89242219.072 4       217.827          35.000  
E14  24514801.769 1 128826166.538 2      3917.688          42.000    24514807.503 1  98710971.957 2      3001.731          41.000  
G 3  26201219.942 9               9       922.000          23.000                                                                  
C23  24700105.652 1 128619926.095 1     -3077.434          47.000                                                                  
C27  23099234.873 1 120283778.384 1      -349.142          49.000                                                                  
C 8  38008448.784 1 197919973.100 2       143.820          42.000    38008443.868 1 153044255.337 1       111.155          44.000  
C28  23799197.978 1 123928666.922 1     -2988.410          47.000                                                                  
C 7  37692561.529 1 196275056.472 1      -542.169          44.000    37692557.532 1 151772307.902 1      -419.110          43.000  
C13  39082201.981 1 203511267.604 3       338.574          37.000    39082207.343 1 157367855.840 4       262.028          36.000  
R12  20901541.606 4 111652283.297 1       673.713          49.000    20901545.012 4  86840677.502 1       523.740          45.000  
R11  21727880.449 4 116107198.712 1     -2646.866          47.000    21727882.155 4  90305606.697 2     -2058.702          42.000  
J 7  37642149.847 1 197810850.774 2     -1047.323          41.000    37642153.112 1 154138332.148 1      -816.139          45.000  
G 8  23380975.496 1 122867867.692 3     -3353.892          35.000    23380982.745 2               7     -2613.479          30.000  
G 1  21666113.552 1 113856185.648 1       463.997          46.000    21666115.888 1  88719119.630 1       361.490          44.000  
E30  23940544.819 1 125808438.976 1      -891.671          45.000    23940551.599 1  96398679.500 1      -683.169          46.000  
J 2  38629173.952 1 202997691.215 1       115.508          44.000    38629176.344 1 158180005.869 1        89.839          44.000  
J 3  40389152.710 1 212246429.949 1     -1731.646          44.000    40389153.431 1 165386859.784 1     -1349.436          43.000  
G 9                                                                  25038655.384 4               8     -2524.139          29.000  
> 2020  6  3  3  2 29.0040000  0 21                     
E15  24130573.306 1 126807026.287 1      -664.838          47.000    24130580.432 1  97163846.247 1      -509.466          46.000  
G11  21540723.264 1 113197260.016 1     -2000.577          45.000                                                                  
G22  25362573.781 2 133281234.082 5       779.462          32.000                                                                  
G 7  21793808.045 1 114527228.228 2       277.951          39.000    21793808.168 2  89242001.880 4       216.723          35.000  
E14  24514056.379 1 128822249.292 2      3916.677          42.000    24514062.078 1  98707970.420 2      3001.282          41.000  
G 3  26201043.262 9               9       922.000          23.000                                                                  
C23  24700696.742 1 128623003.827 1     -3078.120          47.000                                                                  
C27  23099301.967 1 120284128.053 1      -350.061          49.000                                                                  
C 8  38008421.093 1 197919829.289 2       143.493          42.000    38008416.257 1 153044144.121 1       110.904          44.000  
C28  23799771.806 1 123931655.481 1     -2989.031          47.000                                                                  
C 7  37692665.541 1 196275598.669 1      -542.283          44.000    37692661.616 1 151772727.168 1      -419.341          43.000  
C13  39082136.984 1 203510929.159 3       338.485          37.000    39082142.335 1 157367594.149 3       261.308          35.000  
R12  20901415.664 4 111651610.114 1       672.539          48.000    20901418.962 4  86840153.903 1       523.116          45.000  
R11  21728376.036 4 116109846.089 1     -2647.995          47.000    21728377.499 4  90307665.780 2     -2059.541          42.000  
J 7  37642349.175 1 197811898.155 2     -1047.560          41.000    37642352.367 1 154139148.285 1      -816.289          45.000  
G 8  23381613.820 1 122871221.652 3     -3354.617          35.000    23381620.480 4               6     -2613.477          30.000  
G 1  21666025.474 1 113855722.199 1       462.839          46.000    21666027.888 1  88718758.497 1       360.623          44.000  
E30  23940714.809 1 125809330.931 1      -892.270          45.000    23940721.308 1  96399362.946 1      -683.744          46.000  
J 2  38629152.051 1 202997576.005 1       114.999          44.000    38629154.341 1 158179916.088 1        89.594          44.000  
J 3  40389482.253 1 212248161.665 1     -1731.556          44.000    40389482.929 1 165388209.185 2     -1349.411          43.000  
G 9                                                                  25039271.919 4               7     -2525.433          30.000  
> 2020  6  3  3  2 30.0040000  0 21                     
E15  24130700.260 1 126807691.802 1      -666.081          47.000    24130707.003 1  97164356.190 1      -510.444          46.000  
G11  21541104.084 1 113199261.146 1     -2001.650          45.000                                                                  
G22  25362425.487 2 133280454.850 4       778.438          33.000                                                                  
G 7  21793755.286 1 114526950.639 2       277.241          39.000    21793755.341 2  89241785.589 4       215.804          35.000  
E14  24513311.128 1 128818332.680 2      3916.240          42.000    24513316.781 1  98704969.383 2      3000.941          41.000  
G 3  26200861.738 9               9       922.000          23.000                                                                  
C23  24701287.838 1 128626082.480 1     -3079.152          48.000                                                                  
C27  23099369.254 1 120284478.680 1      -351.062          49.000                                                                  
C 8  38008393.438 1 197919686.219 2       142.726          42.000    38008388.799 1 153044033.479 1       110.434          44.000  
C28  23800345.818 1 123934644.832 1     -2989.859          48.000                                                                  
C 7  37692769.668 1 196276141.391 1      -542.999          44.000    37692765.835 1 151773146.834 1      -419.869          43.000  
C13  39082072.055 1 203510591.376 3       337.572          37.000    39082077.409 1 157367332.942 3       260.868          35.000  
R12  20901289.802 4 111650938.000 1       671.495          48.000    20901293.249 4  86839631.150 1       522.424          45.000  
R11  21728871.753 4 116112494.698 1     -2649.233          47.000    21728873.166 4  90309725.783 1     -2060.611          42.000  
J 7  37642548.591 1 197812946.112 2     -1048.221          41.000    37642551.896 1 154139964.887 1      -816.929          45.000  
G 8  23382252.164 1 122874576.196 3     -3354.726          35.000    23382258.455 2               6     -2613.653          30.000  
G 1  21665937.675 1 113855259.961 1       461.545          46.000    21665940.020 1  88718398.309 1       359.604          44.000  
E30  23940884.798 1 125810223.661 1      -893.084          45.000    23940891.229 1  96400046.984 1      -684.469          46.000  
J 2  38629130.264 1 202997461.390 1       114.261          44.000    38629132.416 1 158179826.772 1        89.219          44.000  
J 3  40389811.997 1 212249893.930 1     -1732.609          44.000    40389812.562 1 165389558.991 1     -1350.072          43.000  
G 9                                                                  25039888.502 4               8     -2524.969          29.000  
> 2020  6  3  3  2 31.0040000  0 21                     
E15  24130827.098 1 126808358.276 1      -667.211          47.000    24130833.645 1  97164866.870 1      -511.153          46.000  
G11  21541485.160 1 113201263.332 1     -2002.593          45.000                                                                  
G22  25362277.234 2 133279676.118 4       778.431          33.000                                                                  
G 7  21793702.635 1 114526674.228 2       275.545          39.000    21793702.749 2  89241570.191 4       214.644          35.000  
E14  24512565.436 1 128814416.725 2      3915.556          42.000    24512571.706 1  98701968.852 2      3000.140          41.000  
G 3  26200690.516 9               9       922.000          23.000                                                                  
C23  24701879.176 1 128629162.008 1     -3080.141          48.000                                                                  
C27  23099436.687 1 120284830.266 1      -352.259          48.000                                                                  
C 8  38008365.824 1 197919543.841 2       141.901          41.000    38008361.547 1 153043923.396 1       109.551          44.000  
C28  23800919.947 1 123937634.924 1     -2990.694          48.000                                                                  
C 7  37692874.048 1 196276684.599 1      -543.544          44.000    37692870.188 1 151773566.868 1      -420.306          43.000  
C13  39082007.253 1 203510254.199 3       336.756          37.000    39082012.648 1 157367072.206 3       260.449          35.000  
R12  20901164.194 4 111650266.927 1       670.472          48.000    20901167.516 4  86839109.212 1       521.403          45.000  
R11  21729367.783 4 116115144.444 1     -2650.324          47.000    21729368.866 4  90311786.699 2     -2061.402          43.000  
J 7  37642747.924 1 197813994.604 2     -1049.060          41.000    37642751.357 1 154140781.896 1      -817.551          46.000  
G 8  23382890.722 1 122877931.355 3     -3355.936          34.000    23382896.569 4               7     -2614.463          30.000  
G 1  21665850.112 1 113854798.900 1       460.387          46.000    21665852.477 1  88718039.042 1       358.665          44.000  
E30  23941055.222 1 125811117.114 1      -893.971          46.000    23941061.231 1  96400731.574 1      -685.002          46.000  
J 2  38629108.636 1 202997347.344 1       113.672          44.000    38629110.601 1 158179737.906 1        88.558          44.000  
J 3  40390141.703 1 212251626.657 1     -1733.097          44.000    40390142.286 1 165390909.166 2     -1350.551          43.000  
G 9                                                                  25040505.330 2               8     -2525.482          29.000  
> 2020  6  3  3  2 32.0040000  0 21                     
E15  24130954.133 1 126809025.611 1      -667.613          47.000    24130960.608 1  97165378.200 1      -511.481          46.000  
G11  21541866.268 1 113203266.473 1     -2003.489          45.000                                                                  
G22  25362129.102 2 133278897.840 5       777.818          33.000                                                                  
G 7  21793650.318 1 114526398.790 2       274.811          40.000    21793650.299 1  89241355.579 4       213.910          35.000  
E14  24511820.208 1 128810501.266 2      3915.476          42.000    24511826.700 1  98698968.698 2      3000.074          41.000  
G 3  26200514.919 9               9       922.000          24.000                                                                  
C23  24702470.648 1 128632242.300 1     -3080.601          48.000                                                                  
C27  23099504.565 1 120285182.657 1      -352.706          48.000                                                                  
C 8  38008338.290 1 197919402.025 2       141.673          41.000    38008334.314 1 153043813.723 1       109.656          44.000  
C28  23801494.246 1 123940625.637 1     -2990.888          48.000                                                                  
C 7  37692978.503 1 196277228.173 1      -543.688          44.000    37692974.485 1 151773987.210 1      -420.658          43.000  
C13  39081942.614 1 203509917.570 3       336.085          37.000    39081948.081 1 157366811.876 3       260.352          35.000  
R12  20901038.659 4 111649596.724 1       669.954          48.000    20901042.061 4  86838587.935 1       521.156          45.000  
R11  21729863.999 4 116117795.236 1     -2651.285          48.000    21729864.816 4  90313848.424 2     -2062.082          43.000  
J 7  37642947.447 1 197815043.493 2     -1048.859          41.000    37642950.914 1 154141599.203 1      -817.299          46.000  
G 8  23383529.178 1 122881286.865 4     -3355.634          34.000    23383534.715 4               7     -2613.777          30.000  
G 1  21665762.726 1 113854338.898 1       459.531          47.000    21665765.113 1  88717680.602 1       357.875          44.000  
E30  23941225.302 1 125812011.180 1      -894.116          45.000    23941231.403 1  96401416.636 1      -685.159          46.000  
J 2  38629087.063 1 202997233.719 1       113.547          44.000    38629089.123 1 158179649.364 1        88.439          44.000  
J 3  40390471.489 1 212253359.724 1     -1733.115          44.000    40390472.046 1 165392259.609 1     -1350.837          43.000  
G 9                                                                  25041122.042 2               8     -2525.055          28.000  
> 2020  6  3  3  2 33.0040000  0 21                     
E15  24131081.023 1 126809693.425 1      -668.118          47.000    24131087.847 1  97165889.894 1      -511.722          46.000  
G11  21542247.538 1 113205270.151 1     -2003.883          45.000                                                                  
G22  25361981.169 2 133278119.496 5       778.501          33.000                                                                  
G 7  21793598.039 1 114526123.973 2       274.355          40.000    21793598.033 1  89241141.438 3       213.670          35.000  
E14  24511075.118 1 128806585.944 2      3915.299          42.000    24511081.609 1  98695968.624 2      3000.219          41.000  
C23  24703062.116 1 128635322.956 1     -3080.775          48.000                                                                  
C27  23099572.292 1 120285535.479 1      -353.053          49.000                                                                  
C 8  38008310.668 1 197919260.380 2       141.741          41.000    38008307.079 1 153043704.203 1       109.582          44.000  
C28  23802068.692 1 123943616.597 1     -2991.206          47.000                                                                  
C 7  37693082.812 1 196277771.717 1      -543.523          44.000    37693078.842 1 151774407.502 1      -420.265          43.000  
C13  39081877.973 1 203509580.975 3       336.645          38.000    39081883.435 1 157366551.627 3       260.371          36.000  
R12  20900913.166 4 111648926.952 1       669.620          48.000    20900916.635 4  86838067.021 1       520.654          44.000  
R11  21730360.332 4 116120446.630 1     -2651.699          48.000    21730360.922 4  90315910.613 2     -2062.385          43.000  
G 9  25041676.049 9               9     -3244.656          21.000    25041738.553 2               6     -2524.323          29.000  
J 7  37643147.021 1 197816092.421 2     -1048.932          41.000    37643150.540 1 154142416.548 1      -817.350          46.000  
G 8  23384167.780 1 122884642.484 4     -3355.434          33.000    23384173.045 2               7     -2614.469          30.000  
G 1  21665675.472 1 113853879.566 1       458.792          47.000    21665677.775 1  88717322.653 1       357.781          45.000  
G 4  25899205.248 9               9     -3556.000          25.000                                                                  
E30  23941395.112 1 125812905.468 1      -894.427          45.000    23941401.434 1  96402101.865 1      -685.386          46.000  
J 2  38629065.493 1 202997120.130 1       113.743          44.000    38629067.694 1 158179560.873 1        88.300          44.000  
J 3  40390801.278 1 212255092.751 1     -1733.111          44.000    40390801.826 1 165393609.983 1     -1350.197          43.000  
> 2020  6  3  3  2 34.0040000  0 21                     
E15  24131208.338 1 126810361.735 1      -668.752          47.000    24131214.957 1  97166401.973 1      -512.245          46.000  
G11  21542628.991 1 113207274.408 1     -2004.708          44.000                                                                  
G22  25361833.036 2 133277341.224 5       778.154          35.000                                                                  
G 7  21793546.006 1 114525849.791 2       273.802          40.000    21793545.878 1  89240927.768 3       213.230          35.000  
E14  24510330.136 1 128802670.776 2      3915.094          42.000    24510336.473 1  98692968.715 2      2999.528          41.000  
C23  24703653.688 1 128638404.037 1     -3081.671          48.000                                                                  
C27  23099640.208 1 120285888.776 1      -353.774          48.000                                                                  
C 8  38008283.230 1 197919118.977 2       140.903          41.000    38008279.873 1 153043594.830 1       109.193          43.000  
C28  23802643.037 1 123946607.865 1     -2991.678          45.000                                                                  
C 7  37693187.275 1 196278315.302 1      -543.981          43.000    37693183.226 1 151774827.858 2      -420.344          42.000  
C13  39081813.366 1 203509244.537 3       335.681          37.000    39081818.827 1 157366291.500 3       260.054          35.000  
R12  20900787.747 4 111648257.742 1       668.737          46.000    20900791.317 4  86837546.518 1       520.251          43.000  
R11  21730856.809 4 116123098.721 1     -2652.751          47.000    21730857.176 4  90317973.315 2     -2062.773          43.000  
G 9  25042302.117 9               9     -3244.656          24.000    25042355.031 4               8     -2525.122          29.000  
J 7  37643346.686 1 197817141.384 2     -1048.926          41.000    37643350.230 1 154143233.928 1      -817.588          45.000  
G 8  23384806.354 2               7     -3355.361          31.000    23384811.376 4               8     -2613.864          28.000  
G 1  21665588.157 1 113853420.909 1       458.343          47.000    21665590.577 1  88716965.293 1       356.895          44.000  
G 4  25899881.114 9               9     -3556.000          23.000                                                                  
E30  23941565.307 1 125813799.992 1      -894.787          45.000    23941571.665 1  96402787.263 1      -685.703          45.000  
J 2  38629044.005 1 202997006.668 1       113.385          44.000    38629046.169 1 158179472.456 1        87.992          44.000  
J 3  40391131.033 1 212256825.751 1     -1732.996          43.000    40391131.689 1 165394960.398 1     -1350.480          43.000  
> 2020  6  3  3  2 35.0040000  0 22                     
E15  24131335.693 1 126811031.228 1      -670.234          47.000    24131342.543 1  97166914.980 1      -513.514          46.000  
G11  21543010.686 1 113209279.935 2     -2006.293          44.000                                                                  
G22  25361685.514 2 133276563.681 5       776.765          34.000                                                                  
G 7  21793494.029 1 114525576.980 2       272.285          41.000    21793493.895 1  89240715.186 4       211.975          36.000  
E14  24509585.177 1 128798756.464 2      3913.913          41.000    24509591.709 1  98689969.442 2      2998.802          41.000  
G 3  26199985.654 9               9       918.739          25.000                                                                  
C23  24704245.497 1 128641486.209 1     -3082.690          47.000                                                                  
C27  23099708.305 1 120286243.207 1      -355.052          49.000                                                                  
C 8  38008255.878 1 197918978.444 2       139.933          40.000    38008252.825 1 153043486.163 2       108.280          43.000  
C28  23803217.567 1 123949600.039 1     -2992.713          45.000                                                                  
C 7  37693291.814 1 196278859.584 1      -544.767          43.000    37693287.807 1 151775248.697 2      -421.185          42.000  
C13  39081748.974 1 203508908.943 3       335.128          37.000    39081754.305 1 157366031.998 3       258.842          35.000  
R12  20900662.669 4 111647589.795 1       667.122          47.000    20900666.408 4  86837026.999 1       519.308          43.000  
R11  21731353.366 4 116125752.169 1     -2654.359          46.000    21731353.868 4  90320037.136 1     -2064.282          44.000  
G 9  25042929.824 9               9     -3244.656          26.000    25042971.701 4               8     -2526.343          29.000  
J 7  37643546.409 1 197818191.107 3     -1050.302          41.000    37643550.043 1 154144051.880 1      -818.282          45.000  
G 8  23385445.049 1 122891354.564 5     -3357.253          32.000    23385450.215 2               9     -2615.638          28.000  
G 1  21665501.349 1 113852963.673 1       456.370          48.000    21665503.709 1  88716608.981 1       355.669          44.000  
G 4  25900552.700 9               9     -3556.000          21.000                                                                  
E30  23941735.690 1 125814695.482 1      -896.054          45.000    23941742.341 1  96403473.418 1      -686.471          46.000  
J 2  38629022.619 1 202996893.956 1       112.297          44.000    38629024.609 1 158179384.620 1        87.485          44.000  
J 3  40391460.950 1 212258559.453 1     -1734.250          43.000    40391461.648 1 165396311.350 1     -1351.449          43.000  
> 2020  6  3  3  2 36.0040000  0 22                     
E15  24131463.281 1 126811701.484 1      -670.312          47.000    24131469.952 1  97167428.550 1      -513.593          46.000  
G11  21543392.518 1 113211286.303 1     -2006.488          45.000                                                                  
G22  25361537.840 1 133275786.451 3       777.306          35.000                                                                  
G 7  21793442.229 1 114525305.071 2       271.896          40.000    21793442.197 1  89240503.270 3       212.242          36.000  
E14  24508840.432 1 128794842.553 2      3914.192          42.000    24508846.868 1  98686970.460 2      2999.078          41.000  
G 3  26199808.686 9               9       919.712          25.000                                                                  
C23  24704837.408 1 128644569.029 1     -3082.756          47.000                                                                  
C27  23099776.408 1 120286598.355 1      -355.105          49.000                                                                  
C 8  38008228.698 1 197918838.359 2       140.212          40.000    38008226.024 1 153043377.839 1       108.414          43.000  
C28  23803792.295 1 123952592.765 1     -2992.723          46.000                                                                  
C 7  37693396.308 1 196279404.118 1      -544.392          44.000    37693392.329 1 151775669.761 1      -420.664          42.000  
C13  39081684.550 1 203508573.735 3       335.250          37.000    39081689.926 1 157365772.786 3       259.190          36.000  
R12  20900537.779 4 111646922.672 1       667.103          47.000    20900541.490 4  86836508.132 1       518.977          44.000  
R11  21731850.001 4 116128406.581 1     -2654.522          46.000    21731850.627 4  90322101.656 1     -2064.667          44.000  
G 9  25043553.784 9               7     -3242.059          29.000    25043588.106 4               8     -2526.111          29.000  
J 7  37643746.183 1 197819241.141 2     -1050.090          40.000    37643749.833 1 154144870.074 1      -817.904          46.000  
G 8  23386083.891 1 122894711.368 4     -3356.508          34.000    23386089.028 2               6     -2615.213          31.000  
G 1  21665414.623 1 113852507.378 1       456.251          47.000    21665416.966 1  88716253.410 1       355.828          45.000  
G 4  25901223.290 9               9     -3556.000          20.000                                                                  
E30  23941906.416 1 125815591.484 1      -895.844          45.000    23941912.970 1  96404159.964 1      -686.408          46.000  
J 2  38629001.225 1 202996781.583 1       112.607          44.000    38629003.184 1 158179297.044 1        87.720          44.000  
J 3  40391790.842 1 212260293.402 1     -1733.790          43.000    40391791.598 1 165397662.455 1     -1350.850          43.000  
> 2020  6  3  3  2 37.0040000  0 21                     
E15  24131590.753 1 126812371.736 1      -670.304          46.000    24131597.528 1  97167942.137 1      -513.894          46.000  
G11  21543774.325 1 113213292.747 1     -2006.567          45.000                                                                  
G22  25361390.040 1 133275008.777 3       778.116          35.000                                                                  
G 7  21793390.560 1 114525033.269 2       271.768          41.000    21793390.478 1  89240291.505 3       212.306          36.000  
E14  24508095.618 1 128790928.282 2      3914.204          42.000    24508101.987 1  98683971.239 2      2999.411          41.000  
G 3  26199633.355 9               9       919.642          24.000                                                                  
C23  24705429.242 1 128647651.780 1     -3082.874          48.000                                                                  
C27  23099844.570 1 120286953.480 1      -355.267          49.000                                                                  
C 8  38008201.651 1 197918698.019 2       140.087          40.000    38008199.073 1 153043269.296 1       108.684          44.000  
C28  23804366.831 1 123955585.287 1     -2992.373          44.000                                                                  
C 7  37693500.813 1 196279948.185 1      -544.255          43.000    37693496.822 1 151776090.482 2      -420.687          42.000  
C13  39081619.975 1 203508238.160 3       335.772          37.000    39081625.443 1 157365513.315 3       259.232          35.000  
R12  20900413.021 4 111646255.540 1       667.118          46.000    20900416.519 4  86835989.267 1       518.522          44.000  
R11  21732346.780 4 116131061.106 1     -2654.477          47.000    21732347.260 4  90324166.278 1     -2064.568          43.000  
G 9  25044174.455 8               6     -3241.583          30.000    25044204.629 4               9     -2525.580          27.000  
J 7  37643945.874 1 197820290.718 2     -1049.840          40.000    37643949.469 1 154145687.934 1      -817.671          46.000  
G 8  23386722.460 1 122898067.749 4     -3357.417          31.000    23386727.960 4               6     -2615.399          31.000  
G 1  21665327.996 1 113852051.298 1       455.756          47.000    21665330.301 1  88715898.035 1       355.347          45.000  
E30  23942077.139 1 125816487.198 1      -895.573          45.000    23942083.283 1  96404846.302 1      -686.481          46.000  
J 2  38628979.935 1 202996668.779 1       112.910          45.000    38628981.647 1 158179209.164 2        88.019          43.000  
J 3  40392120.632 1 212262026.820 1     -1733.206          44.000    40392121.536 1 165399013.171 2     -1350.508          43.000  
> 2020  6  3  3  2 38.0040000  0 22                     
E15  24131718.480 1 126813042.024 1      -670.421          47.000    24131725.016 1  97168455.719 1      -513.866          46.000  
G11  21544156.210 1 113215299.317 2     -2006.652          45.000                                                                  
G22  25361242.143 1 133274230.703 3       777.988          35.000                                                                  
G 7  21793338.882 1 114524761.657 2       271.304          39.000    21793338.769 1  89240079.895 3       211.165          35.000  
E14  24507350.576 1 128787013.736 2      3914.692          42.000    24507356.947 1  98680971.772 2      2999.471          41.000  
G 3  26199459.555 8               9       917.563          24.000                                                                  
C23  24706021.037 1 128650734.469 1     -3082.809          48.000                                                                  
C27  23099912.577 1 120287308.598 1      -355.356          49.000                                                                  
C 8  38008174.353 1 197918557.398 2       140.621          40.000    38008172.072 1 153043160.580 1       108.749          44.000  
C28  23804941.300 1 123958577.580 1     -2992.574          46.000                                                                  
C 7  37693605.183 1 196280491.808 1      -543.425          44.000    37693601.328 1 151776510.846 2      -420.332          44.000  
C13  39081555.509 1 203507902.297 3       336.127          37.000    39081560.927 1 157365253.601 3       259.824          35.000  
R22  21006148.309 4 112132245.01211     -3511.649          45.000    21006151.722 4  87213983.313 2     -2731.161          43.000  
R12  20900288.206 4 111645588.438 1       666.887          47.000    20900291.658 4  86835470.389 1       518.664          45.000  
R11  21732843.535 4 116133715.828 1     -2654.816          47.000    21732843.917 4  90326231.051 1     -2064.943          43.000  
G 9  25044799.433 4 131611245.72735     -3241.168          31.000    25044821.028 4               8     -2526.440          29.000  
J 7  37644145.545 1 197821339.857 2     -1048.906          41.000    37644149.115 1 154146505.468 1      -817.345          46.000  
G 8  23387360.681 2 122901423.707 4     -3356.199          31.000    23387368.112 4               7     -2615.197          29.000  
G 1  21665241.266 1 113851595.455 1       455.306          47.000    21665243.780 1  88715542.841 1       354.781          45.000  
E30  23942247.609 1 125817382.729 1      -895.453          45.000    23942253.491 1  96405532.504 1      -686.132          45.000  
J 2  38628958.517 1 202996555.615 1       113.215          44.000    38628960.073 1 158179120.962 1        88.256          43.000  
J 3  40392450.424 1 212263759.811 1     -1732.950          43.000    40392451.274 1 165400363.563 2     -1350.375          43.000  
> 2020  6  3  3  2 39.0040000  0 22                     
E15  24131845.941 1 126813712.578 1      -670.594          47.000    24131852.536 1  97168969.534 1      -513.974          46.000  
G11  21544538.072 1 113217306.260 1     -2007.194          46.000                                                                  
G22  25361094.262 1 133273452.364 3       779.059          36.000                                                                  
G 7  21793287.310 1 114524490.468 2       271.210          40.000    21793287.210 2  89239868.594 4       210.768          35.000  
E14  24506605.680 1 128783099.103 2      3914.459          42.000    24506612.145 1  98677972.243 2      2999.488          41.000  
G 3  26199284.521 9               9       919.315          24.000                                                                  
C23  24706612.888 1 128653817.344 1     -3082.936          48.000                                                                  
C27  23099980.856 1 120287663.949 1      -355.599          48.000                                                                  
C 8  38008147.133 1 197918416.816 2       140.315          40.000    38008145.065 1 153043051.846 1       108.901          44.000  
C28  23805515.968 1 123961569.956 1     -2992.458          47.000                                                                  
C 7  37693709.447 1 196281035.196 1      -543.380          44.000    37693705.706 1 151776931.032 1      -420.121          43.000  
C13  39081490.950 1 203507566.384 3       335.702          38.000    39081496.346 1 157364993.836 4       260.075          35.000  
R22  21006806.147 4 112135756.613 1     -3511.705          44.000    21006809.505 4  87216714.591 2     -2731.581          43.000  
R12  20900163.368 4 111644921.615 1       666.515          47.000    20900166.847 4  86834951.770 1       518.430          45.000  
R11  21733340.528 4 116136370.965 1     -2655.343          48.000    21733340.760 4  90328296.150 1     -2065.206          43.000  
G 9  25045420.784 4               6     -3239.984          30.000    25045437.689 4               7     -2525.122          29.000  
J 7  37644345.180 1 197822388.844 2     -1048.800          41.000    37644348.787 1 154147322.860 1      -817.467          46.000  
G 8  23387999.247 1 122904779.508 3     -3355.647          35.000    23388010.418 8               6     -2614.990          31.000  
G 1  21665154.661 1 113851140.059 1       455.162          48.000    21665157.350 1  88715187.997 1       354.575          45.000  
E30  23942417.838 1 125818278.287 1      -895.528          45.000    23942423.776 1  96406218.703 1      -686.258          45.000  
J 2  38628936.996 1 202996442.300 1       113.353          45.000    38628938.329 1 158179032.684 1        88.056          43.000  
J 3  40392780.117 1 212265492.531 1     -1732.690          44.000    40392781.011 1 165401713.730 2     -1350.111          43.000  
> 2020  6  3  3  2 40.0040000  0 22                     
E15  24131973.649 1 126814383.235 1      -670.600          47.000    24131980.214 1  97169483.406 1      -513.957          46.000  
G11  21544919.896 1 113219313.365 1     -2007.271          46.000                                                                  
G22  25360946.340 1 133272673.740 3       778.434          36.000                                                                  
G 7  21793235.887 1 114524219.553 2       270.598          40.000    21793235.548 2  89239657.445 4       210.787          35.000  
E14  24505860.622 1 128779184.193 2      3915.219          42.000    24505867.136 1  98674972.521 2      2999.894          41.000  
G 3  26199108.222 8               9       920.755          25.000                                                                  
C23  24707204.803 1 128656900.232 1     -3082.923          48.000                                                                  
C27  23100049.139 1 120288019.362 1      -355.528          48.000                                                                  
C 8  38008119.710 1 197918276.011 2       140.709          41.000    38008118.048 1 153042942.970 1       109.010          44.000  
C28  23806090.474 1 123964562.175 1     -2992.163          46.000                                                                  
C 7  37693813.739 1 196281578.211 2      -542.876          44.000    37693809.916 1 151777350.924 1      -419.835          43.000  
C13  39081426.306 1 203507230.198 3       336.116          38.000    39081431.746 1 157364733.847 4       260.185          35.000  
R22  21007463.982 4 112139268.425 1     -3511.890          45.000    21007467.435 4  87219445.990 1     -2731.302          42.000  
R12  20900038.617 4 111644254.946 1       666.507          47.000    20900042.023 4  86834433.247 1       518.374          45.000  
R11  21733837.502 4 116139026.376 1     -2655.628          48.000    21733837.531 4  90330361.458 1     -2065.467          43.000  
G 9  25046038.607 8 131617727.88625     -3240.497          31.000    25046054.233 4               7     -2526.019          30.000  
J 7  37644544.662 1 197823437.491 2     -1048.853          41.000    37644548.485 1 154148139.961 1      -816.973          46.000  
G 8  23388637.827 1 122908135.021 3     -3355.312          36.000    23388650.992 8               6     -2615.061          32.000  
G 1  21665068.137 1 113850684.965 1       454.857          48.000    21665070.720 1  88714833.376 1       354.467          45.000  
E30  23942588.111 1 125819173.697 1      -895.324          45.000    23942594.217 1  96406904.789 1      -686.111          45.000  
J 2  38628915.364 1 202996328.658 1       113.663          45.000    38628916.654 1 158178944.117 1        88.643          43.000  
J 3  40393109.782 1 212267224.849 1     -1732.200          44.000    40393110.625 1 165403063.589 1     -1349.734          43.000  
> 2020  6  3  3  2 41.0040000  0 22                     
E15  24132101.339 1 126815054.054 1      -670.815          47.000    24132107.751 1  97169997.405 1      -514.071          46.000  
G11  21545301.883 1 113221320.712 1     -2007.527          45.000                                                                  
G22  25360798.398 1 133271894.788 3       779.169          36.000                                                                  
G 7  21793184.462 1 114523948.919 2       270.514          40.000    21793184.012 1  89239446.585 4       210.991          35.000  
E14  24505115.719 1 128775269.129 1      3915.151          42.000    24505122.071 1  98671972.666 2      2999.852          42.000  
G 3  26198931.396 8               9       919.831          24.000                                                                  
C23  24707796.834 1 128659983.177 1     -3083.014          47.000                                                                  
C27  23100117.414 1 120288374.905 1      -355.526          48.000                                                                  
C 8  38008092.575 1 197918135.064 2       141.263          41.000    38008090.969 1 153042834.003 1       108.864          44.000  
C28  23806665.057 1 123967554.347 1     -2992.198          46.000                                                                  
C 7  37693917.932 1 196282120.901 1      -542.343          43.000    37693914.157 1 151777770.578 1      -419.519          43.000  
C13  39081361.814 1 203506893.771 3       336.847          38.000    39081367.092 1 157364473.750 4       260.473          35.000  
R22  21008121.913 4 112142780.505 1     -3512.183          44.000    21008125.245 4  87222177.602 1     -2731.648          43.000  
R12  20899913.806 4 111643588.471 1       666.329          47.000    20899917.227 4  86833914.871 1       518.309          45.000  
R11  21734334.562 4 116141682.099 1     -2655.934          47.000    21734334.462 4  90332427.006 1     -2065.694          43.000  
G 9  25046657.765 4               6     -3240.137          30.000    25046670.728 4               7     -2525.439          30.000  
J 7  37644744.138 1 197824485.820 2     -1047.886          41.000    37644748.081 1 154148956.850 1      -816.786          46.000  
G 8  23389276.324 1 122911490.291 3     -3355.219          36.000    23389291.451 8  95775206.19615     -2614.633          33.000  
G 1  21664981.708 1 113850230.247 1       454.596          48.000    21664984.463 1  88714479.056 1       354.070          45.000  
E30  23942758.649 1 125820069.012 1      -895.196          46.000    23942764.767 1  96407590.802 1      -686.031          45.000  
J 2  38628893.828 1 202996214.758 1       114.167          45.000    38628895.011 1 158178855.366 1        88.678          43.000  
J 3  40393439.389 1 212268956.803 1     -1731.526          44.000    40393440.122 1 165404413.156 1     -1349.314          43.000  
> 2020  6  3  3  2 42.0040000  0 23                     
E15  24132229.027 1 126815725.085 1      -671.082          47.000    24132235.519 1  97170511.575 1      -514.367          46.000  
G11  21545683.923 1 113223328.358 1     -2007.715          46.000                                                                  
G22  25360650.399 1 133271115.630 3       779.082          36.000                                                                  
G 7  21793133.152 1 114523678.677 2       270.106          40.000    21793132.689 1  89239236.010 4       210.275          35.000  
E14  24504370.624 1 128771353.928 1      3915.314          42.000    24504377.146 1  98668972.713 2      2999.896          41.000  
G 3  26198757.459 9               9       920.233          25.000                                                                  
C23  24708388.660 1 128663066.264 1     -3083.340          47.000                                                                  
C27  23100185.742 1 120288730.637 1      -355.997          48.000                                                                  
C 8  38008065.362 1 197917994.078 2       140.978          41.000    38008063.926 1 153042724.971 1       108.860          44.000  
C28  23807239.737 1 123970546.511 1     -2992.135          46.000                                                                  
C 7  37694022.009 1 196282663.329 1      -542.137          44.000    37694018.383 1 151778190.011 1      -419.360          44.000  
C13  39081297.020 1 203506557.254 2       336.727          38.000    39081302.516 1 157364213.539 4       260.340          35.000  
R22  21008779.815 4 112146292.903 1     -3512.521          44.000    21008783.381 4  87224909.467 1     -2731.855          43.000  
R12  20899788.993 4 111642922.249 1       666.002          46.000    20899792.484 4  86833396.697 1       518.091          45.000  
R11  21734831.641 4 116144338.188 1     -2656.177          47.000    21734831.507 4  90334492.860 1     -2065.967          44.000  
R23  21408304.566 9               9      1062.500          30.000    21408347.329 9               9       822.803          29.000  
G 9  25047277.842 4 131624208.87225     -3240.125          31.000    25047287.207 2               7     -2525.165          30.000  
J 7  37644943.589 1 197825533.950 2     -1048.090          41.000    37644947.624 1 154149773.567 1      -816.558          46.000  
G 8  23389914.763 1 122914845.349 3     -3354.498          36.000    23389933.532 8  95777820.549 5     -2614.749          33.000  
G 1  21664895.241 1 113849775.937 1       454.161          48.000    21664898.051 1  88714125.034 1       353.986          45.000  
E30  23942929.003 1 125820964.306 1      -895.267          46.000    23942935.251 1  96408276.791 1      -685.894          45.000  
J 2  38628872.058 1 202996100.668 1       114.128          44.000    38628873.242 1 158178766.453 1        89.060          43.000  
J 3  40393768.999 1 212270688.490 1     -1731.502          44.000    40393769.593 1 165405762.530 1     -1349.293          43.000  
> 2020  6  3  3  2 43.0040000  0 23                     
E15  24132356.817 1 126816396.281 1      -671.311          47.000    24132363.279 1  97171025.871 1      -514.450          46.000  
G11  21546066.013 1 113225336.264 1     -2008.112          46.000                                                                  
G22  25360502.316 1 133270336.121 3       779.652          36.000                                                                  
G 7  21793081.888 1 114523408.726 2       269.782          40.000    21793081.252 1  89239025.634 4       210.740          34.000  
E14  24503625.529 1 128767438.553 1      3915.497          42.000    24503631.934 1  98665972.620 1      3000.109          41.000  
G 3  26198580.325 9               9       920.988          24.000                                                                  
C23  24708980.657 1 128666149.410 1     -3083.165          47.000                                                                  
C27  23100254.104 1 120289086.498 1      -355.916          48.000                                                                  
C 8  38008038.174 1 197917852.939 2       141.124          42.000    38008036.794 1 153042615.827 1       108.978          44.000  
C28  23807814.298 1 123973538.606 1     -2992.007          46.000                                                                  
C 7  37694126.120 1 196283205.444 1      -541.979          44.000    37694122.526 1 151778609.205 1      -419.041          43.000  
C13  39081232.237 1 203506220.541 3       336.692          38.000    39081237.840 1 157363953.169 3       260.227          36.000  
R22  21009437.942 4 112149805.568 1     -3512.829          44.000    21009441.504 4  87227641.543 2     -2732.229          42.000  
R12  20899664.243 4 111642256.190 1       666.051          46.000    20899667.746 4  86832878.659 1       517.991          45.000  
R11  21735328.721 4 116146994.620 1     -2656.554          47.000    21735328.574 4  90336558.967 1     -2066.222          44.000  
R23  21408119.950 9               9      1063.192          29.000    21408140.269 9               8       826.330          29.000  
G 9  25047895.205 4 131627448.93025     -3239.453          30.000    25047903.530 4               7     -2524.866          29.000  
J 7  37645142.960 1 197826581.778 2     -1047.727          41.000    37645147.003 1 154150590.068 1      -816.534          46.000  
G 8  23390553.417 1 122918200.173 2     -3354.563          37.000    23390571.173 8  95780434.663 5     -2613.916          33.000  
G 1  21664808.831 1 113849321.994 1       453.889          48.000    21664811.765 1  88713771.316 1       353.688          45.000  
E30  23943099.505 1 125821859.510 1      -895.176          46.000    23943105.561 1  96408962.745 1      -686.058          45.000  
J 2  38628850.364 1 202995986.322 1       114.406          44.000    38628851.404 1 158178677.357 1        89.122          43.000  
J 3  40394098.433 1 212272419.825 1     -1731.113          44.000    40394098.992 1 165407111.612 1     -1348.961          43.000  
> 2020  6  3  3  2 44.0040000  0 23                     
E15  24132484.584 1 126817067.762 1      -671.510          47.000    24132491.058 1  97171540.370 1      -514.459          46.000  
G11  21546448.141 1 113227344.526 1     -2008.420          46.000                                                                  
G22  25360354.192 1 133269556.485 3       779.877          37.000                                                                  
G 7  21793030.675 1 114523139.212 2       269.198          40.000    21793029.977 1  89238815.624 4       210.217          35.000  
E14  24502880.655 1 128763523.121 1      3915.587          42.000    24502886.790 1  98662972.486 1      3000.251          41.000  
G 3  26198404.537 9               9       923.555          24.000                                                                  
C23  24709572.613 1 128669232.759 1     -3083.480          47.000                                                                  
C27  23100322.442 1 120289442.614 1      -356.323          48.000                                                                  
C 8  38008010.909 1 197917711.815 2       141.084          42.000    38008009.655 1 153042506.692 1       109.093          44.000  
C28  23808388.899 1 123976530.770 1     -2992.114          46.000                                                                  
C 7  37694230.176 1 196283747.360 1      -541.846          44.000    37694226.644 1 151779028.243 1      -418.907          43.000  
C13  39081167.544 1 203505883.723 2       337.058          38.000    39081173.073 1 157363692.730 3       260.470          36.000  
R22  21010095.994 4 112153318.611 1     -3513.252          44.000    21010099.600 4  87230373.913 2     -2732.474          42.000  
R12  20899539.601 4 111641590.449 1       665.568          46.000    20899543.148 4  86832360.856 1       517.669          45.000  
R11  21735825.826 4 116149651.499 1     -2657.014          47.000    21735825.768 4  90338625.419 1     -2066.431          44.000  
R23  21407932.624 9               6      1062.125          28.000    21407935.743 9               7       826.516          29.000  
G 9  25048512.233 2               6     -3239.685          30.000    25048520.043 2               7     -2524.664          30.000  
J 7  37645342.428 1 197827629.460 2     -1047.761          41.000    37645346.463 1 154151406.433 1      -816.217          46.000  
G 8  23391191.879 1 122921554.841 2     -3354.452          37.000    23391209.573 8  95783048.724 4     -2614.622          33.000  
G 1  21664722.532 1 113848868.550 1       453.313          48.000    21664725.523 1  88713417.979 1       353.196          45.000  
E30  23943269.701 1 125822754.754 1      -895.142          46.000    23943275.801 1  96409648.701 1      -685.776          45.000  
J 2  38628828.570 1 202995871.842 1       114.570          45.000    38628829.543 1 158178588.152 1        89.329          43.000  
J 3  40394427.825 1 212274150.940 1     -1731.160          44.000    40394428.393 1 165408460.527 1     -1348.706          43.000  
> 2020  6  3  3  2 45.0040000  0 23                     
E15  24132612.192 1 126817739.381 1      -671.677          47.000    24132618.850 1  97172054.995 1      -514.598          46.000  
G11  21546830.361 1 113229353.006 1     -2008.522          46.000                                                                  
G22  25360206.034 1 133268776.518 3       779.869          36.000                                                                  
G 7  21792979.465 1 114522869.966 2       269.404          40.000    21792978.870 2  89238605.877 4       209.310          34.000  
E14  24502135.498 1 128759607.486 1      3915.650          42.000    24502141.769 1  98659972.180 1      3000.475          41.000  
G 3  26198232.549 9               9       922.580          23.000                                                                  
C23  24710164.627 1 128672316.144 1     -3083.357          47.000                                                                  
C27  23100390.823 1 120289798.822 1      -356.314          48.000                                                                  
C 8  38007983.779 1 197917570.535 2       141.492          42.000    38007982.498 1 153042397.451 1       109.314          44.000  
C28  23808963.629 1 123979522.843 1     -2992.155          46.000                                                                  
C 7  37694334.107 1 196284288.920 1      -541.479          44.000    37694330.662 1 151779447.015 1      -418.782          43.000  
C13  39081102.819 1 203505546.692 3       337.261          38.000    39081108.322 1 157363432.110 3       260.854          36.000  
R22  21010754.231 4 112156831.903 1     -3513.457          44.000    21010757.731 4  87233106.475 2     -2732.522          42.000  
R12  20899414.980 4 111640924.864 1       665.625          46.000    20899418.579 4  86831843.181 1       517.731          45.000  
R11  21736323.180 4 116152308.675 1     -2657.277          47.000    21736323.111 4  90340692.099 1     -2066.626          44.000  
R23  21407758.673 9               7      1062.021          27.000    21407735.816 9               7       825.889          28.000  
G 9  25049128.921 2               6     -3239.410          30.000    25049136.278 2               6     -2524.347          29.000  
J 7  37645541.815 1 197828676.820 2     -1047.550          41.000    37645545.859 1 154152222.556 1      -815.961          46.000  
G 8  23391830.322 1 122924909.227 2     -3354.229          37.000    23391847.562 4  95785662.528 4     -2613.861          33.000  
G 1  21664636.331 1 113848415.438 1       452.817          48.000    21664639.473 1  88713064.901 1       352.903          45.000  
E30  23943439.797 1 125823649.877 1      -894.979          46.000    23943446.172 1  96410334.569 1      -685.611          45.000  
J 2  38628806.665 1 202995757.070 1       114.853          45.000    38628807.699 1 158178498.721 1        89.497          43.000  
J 3  40394757.303 1 212275881.678 2     -1730.880          44.000    40394757.789 1 165409809.151 2     -1348.357          43.000  
> 2020  6  3  3  2 46.0040000  0 24                     
E15  24132739.971 1 126818411.180 1      -672.016          47.000    24132746.706 1  97172569.744 1      -514.771          46.000  
G11  21547212.628 1 113231361.752 1     -2009.205          46.000                                                                  
G22  25360057.846 1 133267996.269 3       780.179          36.000                                                                  
G 7  21792928.326 1 114522601.097 2       268.800          40.000    21792927.670 1  89238396.337 4       209.060          34.000  
E14  24501390.404 1 128755691.695 1      3915.619          42.000    24501396.629 1  98656971.783 1      3000.248          41.000  
G 3  26198058.433 9               9       922.065          22.000                                                                  
C23  24710756.749 1 128675399.632 1     -3083.638          47.000                                                                  
C27  23100459.305 1 120290155.192 1      -356.608          48.000                                                                  
C 8  38007956.641 1 197917429.161 2       141.151          42.000    38007955.345 1 153042288.142 1       108.923          44.000  
C28  23809538.350 1 123982514.872 1     -2992.155          46.000                                                                  
C 7  37694438.003 1 196284830.191 1      -541.443          44.000    37694434.587 1 151779865.549 1      -418.472          43.000  
C13  39081038.117 1 203505209.523 3       337.143          38.000    39081043.566 1 157363171.365 3       260.929          36.000  
