% program   : RTKLIB ver.2.4.2
% inp file  : /home/wws/GraphGNSSLib/src/GraphGNSSLib/global_fusion/dataset/gps_solution_TST2/2020_06_03_TST_03.obs
% inp file  : /home/wws/GraphGNSSLib/src/GraphGNSSLib/global_fusion/dataset/gps_solution_TST2/hksc155d.20o
% inp file  : /home/wws/GraphGNSSLib/src/GraphGNSSLib/global_fusion/dataset/gps_solution_TST2/hksc155d.20b
% inp file  : /home/wws/GraphGNSSLib/src/GraphGNSSLib/global_fusion/dataset/gps_solution_TST2/hksc155d.20n
% obs start : 2020/06/03 03:02:27.0 GPST (week2108 270147.0s)
% obs end   : 2020/06/03 03:18:52.0 GPST (week2108 271132.0s)
% pos mode  : kinematic
% freqs     : L1+L2
% solution  : combined
% elev mask : 15.0 deg
% dynamics  : off
% tidecorr  : off
% ionos opt : broadcast
% tropo opt : saastamoinen
% ephemeris : broadcast
% navi sys  : gps glonass galileo qzss sbas
% amb res   : fix and hold
% amb glo   : on
% val thres : 3.0
% antenna1  :                       ( 0.0000  0.0000  0.0000)
% antenna2  :                       ( 0.0000  0.0000  0.0000)
% ref pos   : 22.322172082, 114.141187963,   20.2386
%
% (lat/lon/height=WGS84/ellipsoidal,Q=1:fix,2:float,3:sbas,4:dgps,5:single,6:ppp,ns=# of satellites)
%  GPST        , latitude(deg),longitude(deg), height(m),  Q, ns,  sdn(m),  sde(m),  sdu(m), sdne(m), sdeu(m), sdun(m),age(s), ratio
2108,270147.000,  22.299922300, 114.177708833,   -3.3383,  2, 11,  0.0043,  0.0069,  0.0181,  0.0006,  0.0070, -0.0036,  0.00,   2.6
2108,270148.000,  22.299922661, 114.177709882,   -3.0470,  2, 10,  0.0040,  0.0065,  0.0185, -0.0012,  0.0050, -0.0044,  0.00,   3.0
2108,270149.000,  22.299915391, 114.177707410,    2.7359,  1, 11,  0.0039,  0.0063,  0.0163, -0.0020,  0.0056, -0.0045,  0.00,   3.1
2108,270150.000,  22.299915402, 114.177707375,    2.7309,  1, 11,  0.0041,  0.0065,  0.0163, -0.0017,  0.0055, -0.0046,  0.00,   3.3
2108,270151.000,  22.299915399, 114.177707393,    2.7300,  1, 11,  0.0041,  0.0062,  0.0163, -0.0020,  0.0055, -0.0046,  0.00,   3.5
2108,270152.000,  22.299915426, 114.177707404,    2.7274,  1, 11,  0.0041,  0.0064,  0.0163, -0.0014,  0.0057, -0.0046,  0.00,   3.7
2108,270153.000,  22.299915432, 114.177707442,    2.7331,  1, 11,  0.0041,  0.0064,  0.0163, -0.0019,  0.0055, -0.0045,  0.00,   3.8
2108,270154.000,  22.299920036, 114.177709393,   -1.5880,  2, 10,  0.0042,  0.0064,  0.0203, -0.0013,  0.0051, -0.0071,  0.00,   2.9
2108,270155.000,  22.299915471, 114.177707443,    2.7300,  1, 11,  0.0045,  0.0062,  0.0163, -0.0012,  0.0056, -0.0046,  0.00,   4.0
2108,270156.000,  22.299915459, 114.177707463,    2.7412,  1, 11,  0.0044,  0.0065,  0.0163, -0.0017,  0.0055, -0.0046,  0.00,   4.3
2108,270157.000,  22.299915434, 114.177707435,    2.7480,  1, 11,  0.0042,  0.0064,  0.0163, -0.0015,  0.0056, -0.0046,  0.00,   4.5
2108,270158.000,  22.299922806, 114.177709899,   -3.0132,  2, 12,  0.0043,  0.0065,  0.0163, -0.0020,  0.0056, -0.0046,  0.00,   2.4
2108,270159.000,  22.299922830, 114.177709877,   -3.0313,  2, 11,  0.0042,  0.0065,  0.0163, -0.0022,  0.0055, -0.0046,  0.00,   2.6
2108,270160.000,  22.299922840, 114.177709907,   -3.0507,  2, 12,  0.0041,  0.0065,  0.0171, -0.0015,  0.0054, -0.0044,  0.00,   1.4
2108,270161.000,  22.299922845, 114.177709870,   -3.0296,  2, 11,  0.0043,  0.0064,  0.0163, -0.0014,  0.0055, -0.0046,  0.00,   1.6
2108,270162.000,  22.299922885, 114.177709993,   -3.0791,  2, 12,  0.0042,  0.0063,  0.0156, -0.0013,  0.0059, -0.0026,  0.00,   1.0
2108,270163.000,  22.299922857, 114.177710002,   -3.1159,  2, 12,  0.0037,  0.0062,  0.0163, -0.0024,  0.0057, -0.0025,  0.00,   1.2
2108,270164.000,  22.299922854, 114.177709980,   -3.1192,  2, 11,  0.0039,  0.0066,  0.0163, -0.0015,  0.0057, -0.0026,  0.00,   1.1
2108,270165.000,  22.299922841, 114.177710006,   -3.1253,  2, 11,  0.0043,  0.0064,  0.0164, -0.0015,  0.0057, -0.0024,  0.00,   1.0
2108,270166.000,  22.299922854, 114.177709980,   -3.1341,  2, 11,  0.0039,  0.0063,  0.0164, -0.0020,  0.0055, -0.0028,  0.00,   1.0
2108,270167.000,  22.299922838, 114.177710012,   -3.1265,  2, 11,  0.0039,  0.0063,  0.0164, -0.0021,  0.0058, -0.0025,  0.00,   1.1
2108,270168.000,  22.299922832, 114.177709994,   -3.1243,  2, 11,  0.0040,  0.0063,  0.0185, -0.0019,  0.0052, -0.0044,  0.00,   1.2
2108,270169.000,  22.299922856, 114.177710044,   -3.1323,  2, 11,  0.0038,  0.0063,  0.0165, -0.0022,  0.0055, -0.0028,  0.00,   1.2
2108,270170.000,  22.299922833, 114.177710044,   -3.1451,  2, 11,  0.0042,  0.0064,  0.0166, -0.0020,  0.0056, -0.0029,  0.00,   1.2
2108,270171.000,  22.299922865, 114.177710048,   -3.1362,  2, 11,  0.0040,  0.0066,  0.0167, -0.0014,  0.0056, -0.0030,  0.00,   1.3
2108,270172.000,  22.299922807, 114.177710078,   -3.1470,  2, 11,  0.0042,  0.0065,  0.0169, -0.0015,  0.0054, -0.0034,  0.00,   1.0
2108,270173.000,  22.299922825, 114.177710019,   -3.1510,  2, 11,  0.0040,  0.0064,  0.0173, -0.0020,  0.0054, -0.0035,  0.00,   1.0
2108,270174.000,  22.299922802, 114.177710047,   -3.1482,  2, 11,  0.0044,  0.0066,  0.0185, -0.0013,  0.0053, -0.0044,  0.00,   1.0
2108,270175.000,  22.299922820, 114.177710044,   -3.1479,  2, 11,  0.0040,  0.0065,  0.0185, -0.0016,  0.0051, -0.0044,  0.00,   1.0
2108,270176.000,  22.299922826, 114.177710045,   -3.1554,  2, 11,  0.0047,  0.0065,  0.0185, -0.0017,  0.0051, -0.0042,  0.00,   1.0
2108,270177.000,  22.299922812, 114.177710035,   -3.1531,  2, 11,  0.0042,  0.0064,  0.0185, -0.0014,  0.0051, -0.0041,  0.00,   1.0
2108,270178.000,  22.299922840, 114.177710040,   -3.1690,  2, 11,  0.0039,  0.0066,  0.0185, -0.0009,  0.0052, -0.0044,  0.00,   1.0
2108,270179.000,  22.299922828, 114.177710048,   -3.1677,  2, 11,  0.0039,  0.0066,  0.0185, -0.0017,  0.0051, -0.0042,  0.00,   1.0
2108,270180.000,  22.299922856, 114.177710025,   -3.1864,  2, 11,  0.0041,  0.0064,  0.0184, -0.0022,  0.0051, -0.0044,  0.00,   1.0
2108,270181.000,  22.299922869, 114.177710065,   -3.1895,  2, 11,  0.0039,  0.0065,  0.0184, -0.0016,  0.0052, -0.0045,  0.00,   1.0
2108,270182.000,  22.299922852, 114.177710077,   -3.1909,  2, 11,  0.0043,  0.0062,  0.0184, -0.0021,  0.0052, -0.0043,  0.00,   1.0
2108,270183.000,  22.299922869, 114.177710069,   -3.2061,  2, 11,  0.0041,  0.0063,  0.0184, -0.0017,  0.0051, -0.0043,  0.00,   1.0
2108,270184.000,  22.299922859, 114.177710049,   -3.2085,  2, 11,  0.0041,  0.0065,  0.0184, -0.0014,  0.0051, -0.0044,  0.00,   1.0
2108,270185.000,  22.299922865, 114.177710059,   -3.2176,  2, 11,  0.0043,  0.0066,  0.0184, -0.0012,  0.0052, -0.0043,  0.00,   1.0
2108,270186.000,  22.299918940, 114.177708975,   -0.2271,  2, 10,  0.0049,  0.0065,  0.0262, -0.0012,  0.0037, -0.0083,  0.00,   1.0
2108,270187.000,  22.299918957, 114.177708929,   -0.2359,  2, 10,  0.0050,  0.0065,  0.0262, -0.0004,  0.0036, -0.0083,  0.00,   1.0
2108,270188.000,  22.299922900, 114.177710081,   -3.2197,  2, 11,  0.0038,  0.0064,  0.0184, -0.0015,  0.0053, -0.0043,  0.00,   1.0
2108,270189.000,  22.299922888, 114.177710057,   -3.2270,  2, 11,  0.0042,  0.0066,  0.0184, -0.0018,  0.0052, -0.0044,  0.00,   1.0
2108,270190.000,  22.299922920, 114.177710088,   -3.2319,  2, 11,  0.0040,  0.0064,  0.0184, -0.0021,  0.0053, -0.0043,  0.00,   1.0
2108,270191.000,  22.299922922, 114.177710077,   -3.2346,  2, 11,  0.0041,  0.0065,  0.0185, -0.0023,  0.0053, -0.0041,  0.00,   1.0
2108,270192.000,  22.299922936, 114.177710109,   -3.2339,  2, 11,  0.0044,  0.0064,  0.0184, -0.0022,  0.0053, -0.0042,  0.00,   1.0
2108,270193.000,  22.299922951, 114.177710097,   -3.2464,  2, 11,  0.0038,  0.0066,  0.0184, -0.0016,  0.0052, -0.0042,  0.00,   1.0
2108,270194.000,  22.299922970, 114.177710122,   -3.2373,  2, 11,  0.0039,  0.0065,  0.0184, -0.0019,  0.0052, -0.0043,  0.00,   1.0
2108,270195.000,  22.299923003, 114.177710095,   -3.2518,  2, 11,  0.0037,  0.0066,  0.0184, -0.0009,  0.0051, -0.0042,  0.00,   1.0
2108,270196.000,  22.299922991, 114.177710126,   -3.2356,  2, 11,  0.0046,  0.0064,  0.0184, -0.0021,  0.0052, -0.0042,  0.00,   1.0
2108,270197.000,  22.299923029, 114.177710134,   -3.2271,  2, 11,  0.0037,  0.0063,  0.0161, -0.0020,  0.0058, -0.0023,  0.00,   1.0
2108,270198.000,  22.299923022, 114.177710142,   -3.2389,  2, 12,  0.0041,  0.0064,  0.0184, -0.0016,  0.0051, -0.0043,  0.00,   1.0
2108,270199.000,  22.299922956, 114.177710362,   -3.2114,  2, 12,  0.0043,  0.0065,  0.0184, -0.0018,  0.0054, -0.0044,  0.00,   1.0
2108,270200.000,  22.299922889, 114.177710379,   -3.1686,  2, 12,  0.0041,  0.0065,  0.0163, -0.0023,  0.0062, -0.0029,  0.00,   1.0
2108,270201.000,  22.299922868, 114.177710429,   -3.1484,  2, 12,  0.0043,  0.0065,  0.0163, -0.0027,  0.0061, -0.0028,  0.00,   1.0
2108,270202.000,  22.299922816, 114.177710500,   -3.1298,  2, 12,  0.0043,  0.0067,  0.0164, -0.0022,  0.0062, -0.0032,  0.00,   1.0
2108,270203.000,  22.299922719, 114.177710672,   -3.0847,  2, 12,  0.0041,  0.0068,  0.0166, -0.0026,  0.0064, -0.0032,  0.00,   1.0
2108,270204.000,  22.299922506, 114.177711068,   -2.9987,  2, 12,  0.0045,  0.0069,  0.0170, -0.0030,  0.0068, -0.0038,  0.00,   1.0
2108,270205.000,  22.299923019, 114.177710199,   -3.1823,  2, 12,  0.0041,  0.0065,  0.0161, -0.0017,  0.0060, -0.0020,  0.00,   1.0
2108,270206.000,  22.299923042, 114.177710209,   -3.1928,  2, 11,  0.0040,  0.0064,  0.0160, -0.0017,  0.0057, -0.0025,  0.00,   1.0
2108,270207.000,  22.299923031, 114.177710166,   -3.1847,  2, 11,  0.0038,  0.0066,  0.0160, -0.0023,  0.0058, -0.0022,  0.00,   1.0
2108,270208.000,  22.299923003, 114.177710135,   -3.1931,  2, 11,  0.0040,  0.0064,  0.0160, -0.0023,  0.0058, -0.0027,  0.00,   1.0
2108,270209.000,  22.299923020, 114.177710121,   -3.1895,  2, 11,  0.0038,  0.0066,  0.0160, -0.0023,  0.0059, -0.0027,  0.00,   1.0
2108,270210.000,  22.299923045, 114.177710105,   -3.1946,  2, 11,  0.0038,  0.0065,  0.0160, -0.0015,  0.0057, -0.0021,  0.00,   1.0
2108,270211.000,  22.299923049, 114.177710088,   -3.1985,  2, 11,  0.0041,  0.0065,  0.0160, -0.0019,  0.0056, -0.0022,  0.00,   1.0
2108,270212.000,  22.299923051, 114.177710116,   -3.1964,  2, 11,  0.0033,  0.0065,  0.0161, -0.0021,  0.0058, -0.0017,  0.00,   1.0
2108,270213.000,  22.299921172, 114.177709836,   -1.6595,  2, 10,  0.0043,  0.0064,  0.0189, -0.0015,  0.0056, -0.0041,  0.00,   1.0
2108,270214.000,  22.299921176, 114.177709796,   -1.6679,  2, 10,  0.0041,  0.0061,  0.0189, -0.0023,  0.0057, -0.0042,  0.00,   1.0
2108,270215.000,  22.299923087, 114.177710110,   -3.2045,  2, 11,  0.0040,  0.0065,  0.0160, -0.0023,  0.0058, -0.0019,  0.00,   1.0
2108,270216.000,  22.299923070, 114.177710103,   -3.2034,  2, 11,  0.0038,  0.0067,  0.0160, -0.0022,  0.0058, -0.0021,  0.00,   1.0
2108,270217.000,  22.299923079, 114.177710091,   -3.2253,  2, 11,  0.0040,  0.0063,  0.0160, -0.0022,  0.0057, -0.0022,  0.00,   1.0
2108,270218.000,  22.299923096, 114.177710104,   -3.2318,  2, 11,  0.0037,  0.0064,  0.0160, -0.0020,  0.0058, -0.0022,  0.00,   1.0
2108,270219.000,  22.299923142, 114.177710136,   -3.2801,  2, 11,  0.0046,  0.0062,  0.0183, -0.0019,  0.0052, -0.0042,  0.00,   1.0
2108,270220.000,  22.299923083, 114.177710185,   -3.2319,  2, 11,  0.0043,  0.0064,  0.0160, -0.0019,  0.0057, -0.0023,  0.00,   1.0
2108,270221.000,  22.299923113, 114.177710191,   -3.2543,  2, 11,  0.0039,  0.0065,  0.0160, -0.0013,  0.0057, -0.0024,  0.00,   1.0
2108,270222.000,  22.299923202, 114.177710209,   -3.3125,  2, 11,  0.0041,  0.0065,  0.0184, -0.0018,  0.0053, -0.0043,  0.00,   1.0
2108,270223.000,  22.299923147, 114.177710244,   -3.2929,  2, 11,  0.0037,  0.0062,  0.0160, -0.0022,  0.0058, -0.0025,  0.00,   1.0
2108,270224.000,  22.299923191, 114.177710247,   -3.3160,  2, 11,  0.0041,  0.0065,  0.0160, -0.0014,  0.0057, -0.0021,  0.00,   1.0
2108,270225.000,  22.299923235, 114.177710219,   -3.3355,  2, 11,  0.0036,  0.0065,  0.0160, -0.0022,  0.0058, -0.0019,  0.00,   1.0
2108,270226.000,  22.299923216, 114.177710279,   -3.3428,  2, 11,  0.0043,  0.0062,  0.0160, -0.0019,  0.0058, -0.0027,  0.00,   1.0
2108,270227.000,  22.299923263, 114.177710251,   -3.3657,  2, 11,  0.0038,  0.0063,  0.0160, -0.0015,  0.0058, -0.0020,  0.00,   1.0
2108,270228.000,  22.299923250, 114.177710522,   -3.3746,  2, 12,  0.0036,  0.0063,  0.0160, -0.0024,  0.0057, -0.0019,  0.00,   1.0
2108,270229.000,  22.299923278, 114.177710615,   -3.3713,  2, 12,  0.0042,  0.0068,  0.0160, -0.0020,  0.0057, -0.0021,  0.00,   1.0
2108,270230.000,  22.299923329, 114.177710362,   -3.3959,  2, 11,  0.0040,  0.0065,  0.0160, -0.0020,  0.0059, -0.0021,  0.00,   1.0
2108,270231.000,  22.299923296, 114.177710738,   -3.4107,  2, 12,  0.0040,  0.0067,  0.0160, -0.0022,  0.0056, -0.0023,  0.00,   1.0
2108,270232.000,  22.299923299, 114.177710949,   -3.4185,  2, 12,  0.0040,  0.0068,  0.0160, -0.0024,  0.0057, -0.0022,  0.00,   1.0
2108,270233.000,  22.299923409, 114.177710447,   -3.4288,  2, 11,  0.0039,  0.0064,  0.0160, -0.0024,  0.0059, -0.0026,  0.00,   1.0
2108,270234.000,  22.299923435, 114.177710437,   -3.4493,  2, 11,  0.0037,  0.0064,  0.0160, -0.0020,  0.0058, -0.0024,  0.00,   1.0
2108,270235.000,  22.299923442, 114.177710472,   -3.4657,  2, 11,  0.0041,  0.0065,  0.0160, -0.0019,  0.0058, -0.0023,  0.00,   1.0
2108,270236.000,  22.299923313, 114.177711436,   -3.4845,  2, 12,  0.0038,  0.0070,  0.0161, -0.0027,  0.0057, -0.0016,  0.00,   1.0
2108,270237.000,  22.299923490, 114.177710504,   -3.4753,  2, 12,  0.0040,  0.0064,  0.0160, -0.0020,  0.0059, -0.0026,  0.00,   1.0
2108,270238.000,  22.299923516, 114.177710516,   -3.4908,  2, 11,  0.0036,  0.0065,  0.0160, -0.0015,  0.0057, -0.0024,  0.00,   1.0
2108,270239.000,  22.299923583, 114.177710502,   -3.5126,  2, 11,  0.0038,  0.0063,  0.0160, -0.0025,  0.0058, -0.0020,  0.00,   1.0
2108,270240.000,  22.299923588, 114.177710516,   -3.5324,  2, 11,  0.0044,  0.0065,  0.0160, -0.0020,  0.0058, -0.0022,  0.00,   1.0
2108,270241.000,  22.299923629, 114.177710511,   -3.5491,  2, 11,  0.0040,  0.0063,  0.0160, -0.0022,  0.0058, -0.0016,  0.00,   1.0
2108,270242.000,  22.299923648, 114.177710533,   -3.5744,  2, 11,  0.0036,  0.0065,  0.0160, -0.0019,  0.0060, -0.0023,  0.00,   1.0
2108,270243.000,  22.299923656, 114.177710547,   -3.5929,  2, 11,  0.0039,  0.0066,  0.0160, -0.0022,  0.0058, -0.0023,  0.00,   1.0
2108,270244.000,  22.299923691, 114.177710591,   -3.6034,  2, 11,  0.0040,  0.0063,  0.0160, -0.0018,  0.0059, -0.0021,  0.00,   1.0
2108,270245.000,  22.299923706, 114.177710671,   -3.6101,  2, 11,  0.0031,  0.0066,  0.0160, -0.0022,  0.0059, -0.0023,  0.00,   1.0
2108,270246.000,  22.299923740, 114.177710671,   -3.6438,  2, 11,  0.0038,  0.0066,  0.0160, -0.0016,  0.0058, -0.0023,  0.00,   1.0
2108,270247.000,  22.299923904, 114.177710528,   -3.5315,  2, 11,  0.0032,  0.0067,  0.0146, -0.0021,  0.0060, -0.0031,  0.00,   1.0
2108,270248.000,  22.299923919, 114.177710530,   -3.5456,  2, 11,  0.0037,  0.0062,  0.0146, -0.0018,  0.0060, -0.0029,  0.00,   1.0
2108,270249.000,  22.299923929, 114.177710029,   -3.6713,  2, 11,  0.0037,  0.0055,  0.0130, -0.0021,  0.0043, -0.0032,  0.00,   1.1
2108,270250.000,  22.299923969, 114.177710062,   -3.7018,  2, 11,  0.0037,  0.0059,  0.0130, -0.0016,  0.0041, -0.0033,  0.00,   1.1
2108,270251.000,  22.299923985, 114.177710023,   -3.7502,  2, 11,  0.0041,  0.0058,  0.0130, -0.0016,  0.0040, -0.0029,  0.00,   1.1
2108,270252.000,  22.299924050, 114.177710023,   -3.7705,  2, 11,  0.0037,  0.0059,  0.0131, -0.0016,  0.0042, -0.0029,  0.00,   1.1
2108,270253.000,  22.299924044, 114.177710035,   -3.7852,  2, 11,  0.0040,  0.0057,  0.0130, -0.0017,  0.0041, -0.0031,  0.00,   1.1
2108,270254.000,  22.299924019, 114.177710039,   -3.8001,  2, 11,  0.0042,  0.0055,  0.0130, -0.0017,  0.0042, -0.0034,  0.00,   1.1
2108,270255.000,  22.299924063, 114.177710078,   -3.8272,  2, 11,  0.0039,  0.0059,  0.0130, -0.0020,  0.0043, -0.0035,  0.00,   1.1
2108,270256.000,  22.299924081, 114.177710075,   -3.8469,  2, 11,  0.0041,  0.0058,  0.0130, -0.0024,  0.0042, -0.0034,  0.00,   1.1
2108,270257.000,  22.299924130, 114.177710024,   -3.8640,  2, 11,  0.0040,  0.0055,  0.0145, -0.0012,  0.0035, -0.0045,  0.00,   1.1
2108,270258.000,  22.299924164, 114.177710076,   -3.8933,  2, 11,  0.0034,  0.0059,  0.0145, -0.0019,  0.0037, -0.0045,  0.00,   1.1
2108,270259.000,  22.299924232, 114.177710068,   -3.9254,  2, 11,  0.0030,  0.0057,  0.0130, -0.0024,  0.0042, -0.0030,  0.00,   1.1
2108,270260.000,  22.299924224, 114.177710082,   -3.9422,  2, 11,  0.0037,  0.0056,  0.0145, -0.0022,  0.0037, -0.0045,  0.00,   1.1
2108,270261.000,  22.299924242, 114.177710083,   -3.9738,  2, 11,  0.0038,  0.0058,  0.0130, -0.0027,  0.0041, -0.0034,  0.00,   1.1
2108,270262.000,  22.299924314, 114.177710095,   -3.9982,  2, 11,  0.0043,  0.0059,  0.0130, -0.0025,  0.0043, -0.0030,  0.00,   1.1
2108,270263.000,  22.299924337, 114.177710039,   -4.0248,  2, 11,  0.0042,  0.0060,  0.0130, -0.0022,  0.0041, -0.0031,  0.00,   1.1
2108,270264.000,  22.299924365, 114.177710043,   -4.0540,  2, 11,  0.0039,  0.0057,  0.0130, -0.0018,  0.0042, -0.0031,  0.00,   1.1
2108,270265.000,  22.299924391, 114.177710012,   -4.0729,  2, 11,  0.0033,  0.0057,  0.0130, -0.0016,  0.0041, -0.0035,  0.00,   1.1
2108,270266.000,  22.299924411, 114.177710045,   -4.1019,  2, 11,  0.0041,  0.0057,  0.0131, -0.0019,  0.0043, -0.0032,  0.00,   1.1
2108,270267.000,  22.299924426, 114.177710010,   -4.1246,  2, 11,  0.0035,  0.0059,  0.0130, -0.0026,  0.0041, -0.0034,  0.00,   1.1
2108,270268.000,  22.299924463, 114.177709958,   -4.1549,  2, 11,  0.0036,  0.0060,  0.0130, -0.0021,  0.0041, -0.0035,  0.00,   1.0
2108,270269.000,  22.299924492, 114.177709928,   -4.1805,  2, 11,  0.0044,  0.0059,  0.0131, -0.0022,  0.0041, -0.0031,  0.00,   1.0
2108,270270.000,  22.299924510, 114.177709885,   -4.2119,  2, 11,  0.0039,  0.0058,  0.0131, -0.0023,  0.0040, -0.0033,  0.00,   1.0
2108,270271.000,  22.299924559, 114.177709867,   -4.2307,  2, 11,  0.0039,  0.0058,  0.0131, -0.0019,  0.0044, -0.0033,  0.00,   1.0
2108,270272.000,  22.299924578, 114.177709826,   -4.2687,  2, 11,  0.0039,  0.0057,  0.0131, -0.0024,  0.0042, -0.0033,  0.00,   1.0
2108,270273.000,  22.299921460, 114.177708933,   -2.7947,  2, 10,  0.0043,  0.0056,  0.0147, -0.0021,  0.0040, -0.0045,  0.00,   1.1
2108,270274.000,  22.299921580, 114.177708847,   -2.9054,  2, 10,  0.0042,  0.0055,  0.0147, -0.0014,  0.0039, -0.0047,  0.00,   1.1
2108,270275.000,  22.299924811, 114.177709582,   -4.4866,  2, 11,  0.0041,  0.0061,  0.0131, -0.0020,  0.0042, -0.0033,  0.00,   1.0
2108,270276.000,  22.299924849, 114.177710688,   -4.2506,  2, 11,  0.0034,  0.0064,  0.0148, -0.0010,  0.0061, -0.0033,  0.00,   1.0
2108,270277.000,  22.299924879, 114.177710714,   -4.2832,  2, 11,  0.0041,  0.0063,  0.0148, -0.0020,  0.0060, -0.0031,  0.00,   1.0
2108,270278.000,  22.299924918, 114.177710645,   -4.3144,  2, 11,  0.0040,  0.0063,  0.0149, -0.0016,  0.0060, -0.0032,  0.00,   1.0
2108,270279.000,  22.299924912, 114.177710653,   -4.3398,  2, 11,  0.0042,  0.0065,  0.0149, -0.0019,  0.0062, -0.0031,  0.00,   1.0
2108,270280.000,  22.299925036, 114.177710607,   -4.3538,  2, 12,  0.0041,  0.0054,  0.0128, -0.0018,  0.0036, -0.0035,  0.00,   1.0
2108,270281.000,  22.299925125, 114.177710630,   -4.3802,  2, 12,  0.0028,  0.0053,  0.0129, -0.0024,  0.0036, -0.0037,  0.00,   1.0
2108,270282.000,  22.299925154, 114.177710663,   -4.4058,  2, 12,  0.0038,  0.0058,  0.0131, -0.0021,  0.0038, -0.0036,  0.00,   1.1
2108,270283.000,  22.299925193, 114.177710661,   -4.4281,  2, 12,  0.0039,  0.0056,  0.0134, -0.0021,  0.0039, -0.0037,  0.00,   1.1
2108,270284.000,  22.299925224, 114.177710730,   -4.4252,  2, 12,  0.0037,  0.0062,  0.0141, -0.0020,  0.0044, -0.0039,  0.00,   1.1
2108,270285.000,  22.299925156, 114.177710945,   -4.3559,  2, 12,  0.0042,  0.0064,  0.0160, -0.0018,  0.0056, -0.0045,  0.00,   1.1
2108,270286.000,  22.299925292, 114.177713372,   -3.7782,  2, 12,  0.0039,  0.0056,  0.0144, -0.0015,  0.0033, -0.0042,  0.00,   1.0
2108,270287.000,  22.299925413, 114.177714582,   -3.5130,  2, 12,  0.0043,  0.0054,  0.0135, -0.0016,  0.0014, -0.0044,  0.00,   1.0
2108,270288.000,  22.299925456, 114.177714629,   -3.5480,  2, 12,  0.0045,  0.0054,  0.0135, -0.0017,  0.0015, -0.0046,  0.00,   1.0
2108,270289.000,  22.299925551, 114.177714726,   -3.5782,  2, 12,  0.0039,  0.0052,  0.0135, -0.0024,  0.0018, -0.0046,  0.00,   1.0
2108,270290.000,  22.299925625, 114.177714675,   -3.6303,  2, 12,  0.0039,  0.0055,  0.0134, -0.0018,  0.0012, -0.0047,  0.00,   1.0
2108,270291.000,  22.299925659, 114.177714756,   -3.6654,  2, 12,  0.0045,  0.0053,  0.0135, -0.0006,  0.0018, -0.0044,  0.00,   1.0
2108,270292.000,  22.299925746, 114.177714842,   -3.7104,  2, 12,  0.0040,  0.0054,  0.0134, -0.0022,  0.0018, -0.0047,  0.00,   1.0
2108,270293.000,  22.299925852, 114.177714817,   -3.7561,  2, 12,  0.0042,  0.0056,  0.0134, -0.0020,  0.0009, -0.0046,  0.00,   1.0
2108,270294.000,  22.299925925, 114.177714893,   -3.7978,  2, 12,  0.0038,  0.0053,  0.0134, -0.0019,  0.0013, -0.0047,  0.00,   1.0
2108,270295.000,  22.299926039, 114.177714965,   -3.8383,  2, 12,  0.0040,  0.0055,  0.0135, -0.0023,  0.0013, -0.0044,  0.00,   1.0
2108,270296.000,  22.299926064, 114.177714999,   -3.8868,  2, 12,  0.0040,  0.0055,  0.0134, -0.0022,  0.0007, -0.0048,  0.00,   1.1
2108,270297.000,  22.299926193, 114.177715035,   -3.9385,  2, 12,  0.0042,  0.0055,  0.0135, -0.0014,  0.0015, -0.0042,  0.00,   1.1
2108,270298.000,  22.299926236, 114.177715140,   -3.9797,  2, 12,  0.0042,  0.0055,  0.0135, -0.0016,  0.0019, -0.0045,  0.00,   1.1
2108,270299.000,  22.299926366, 114.177715139,   -4.0328,  2, 12,  0.0039,  0.0053,  0.0134, -0.0022,  0.0012, -0.0045,  0.00,   1.1
2108,270300.000,  22.299926416, 114.177715239,   -4.0852,  2, 12,  0.0043,  0.0052,  0.0134, -0.0018,  0.0015, -0.0045,  0.00,   1.1
2108,270301.000,  22.299926492, 114.177715310,   -4.1380,  2, 12,  0.0042,  0.0055,  0.0134, -0.0018,  0.0017, -0.0046,  0.00,   1.1
2108,270302.000,  22.299926589, 114.177715371,   -4.1798,  2, 12,  0.0041,  0.0054,  0.0134, -0.0022,  0.0016, -0.0046,  0.00,   1.1
2108,270303.000,  22.299926662, 114.177715408,   -4.2441,  2, 12,  0.0045,  0.0054,  0.0134, -0.0022,  0.0011, -0.0046,  0.00,   1.2
2108,270304.000,  22.299926774, 114.177715490,   -4.3073,  2, 12,  0.0042,  0.0055,  0.0134, -0.0022,  0.0012, -0.0047,  0.00,   1.2
2108,270305.000,  22.299926884, 114.177715580,   -4.3524,  2, 12,  0.0046,  0.0050,  0.0134, -0.0022,  0.0013, -0.0043,  0.00,   1.2
2108,270306.000,  22.299926963, 114.177715598,   -4.4181,  2, 12,  0.0047,  0.0055,  0.0134, -0.0013,  0.0015, -0.0043,  0.00,   1.2
2108,270307.000,  22.299927191, 114.177715706,   -4.4825,  2, 12,  0.0036,  0.0053,  0.0134, -0.0020,  0.0015, -0.0045,  0.00,   1.2
2108,270308.000,  22.299927206, 114.177715867,   -4.5484,  2, 12,  0.0041,  0.0051,  0.0133, -0.0025,  0.0018, -0.0047,  0.00,   1.2
2108,270309.000,  22.299927381, 114.177715866,   -4.6114,  2, 12,  0.0039,  0.0054,  0.0134, -0.0023,  0.0015, -0.0046,  0.00,   1.2
2108,270310.000,  22.299927516, 114.177715903,   -4.6823,  2, 12,  0.0040,  0.0053,  0.0134, -0.0017,  0.0013, -0.0045,  0.00,   1.2
2108,270311.000,  22.299927613, 114.177716050,   -4.7469,  2, 12,  0.0041,  0.0053,  0.0134, -0.0020,  0.0018, -0.0046,  0.00,   1.2
2108,270312.000,  22.299927758, 114.177716103,   -4.8144,  2, 12,  0.0040,  0.0052,  0.0134, -0.0018,  0.0015, -0.0045,  0.00,   1.2
2108,270313.000,  22.299925552, 114.177714853,   -3.8534,  2, 12,  0.0038,  0.0054,  0.0120, -0.0021,  0.0028, -0.0030,  0.00,   1.0
2108,270314.000,  22.299925605, 114.177714941,   -3.8996,  2, 12,  0.0037,  0.0052,  0.0119, -0.0026,  0.0025, -0.0034,  0.00,   1.0
2108,270315.000,  22.299925662, 114.177714981,   -3.9502,  2, 12,  0.0040,  0.0054,  0.0119, -0.0023,  0.0026, -0.0033,  0.00,   1.0
2108,270316.000,  22.299925766, 114.177715037,   -4.0033,  2, 12,  0.0038,  0.0054,  0.0119, -0.0021,  0.0027, -0.0031,  0.00,   1.0
2108,270317.000,  22.299925892, 114.177715102,   -4.0586,  2, 12,  0.0032,  0.0055,  0.0119, -0.0020,  0.0026, -0.0032,  0.00,   1.0
2108,270318.000,  22.299925907, 114.177715197,   -4.1115,  2, 12,  0.0036,  0.0052,  0.0119, -0.0023,  0.0029, -0.0035,  0.00,   1.0
2108,270319.000,  22.299925963, 114.177715254,   -4.1720,  2, 12,  0.0040,  0.0054,  0.0119, -0.0021,  0.0027, -0.0033,  0.00,   1.0
2108,270320.000,  22.299926049, 114.177715339,   -4.2276,  2, 12,  0.0037,  0.0053,  0.0119, -0.0024,  0.0027, -0.0035,  0.00,   1.0
2108,270321.000,  22.299926119, 114.177715443,   -4.2922,  2, 12,  0.0037,  0.0053,  0.0119, -0.0029,  0.0026, -0.0036,  0.00,   1.0
2108,270322.000,  22.299926226, 114.177715436,   -4.3528,  2, 12,  0.0037,  0.0055,  0.0119, -0.0020,  0.0025, -0.0032,  0.00,   1.0
2108,270323.000,  22.299926309, 114.177715544,   -4.4469,  2, 12,  0.0040,  0.0052,  0.0119, -0.0018,  0.0027, -0.0033,  0.00,   1.0
2108,270324.000,  22.299926386, 114.177715611,   -4.5092,  2, 12,  0.0041,  0.0054,  0.0119, -0.0023,  0.0026, -0.0033,  0.00,   1.1
2108,270325.000,  22.299926489, 114.177715726,   -4.5718,  2, 12,  0.0036,  0.0052,  0.0119, -0.0025,  0.0026, -0.0034,  0.00,   1.2
2108,270326.000,  22.299926524, 114.177715806,   -4.6400,  2, 12,  0.0038,  0.0053,  0.0119, -0.0025,  0.0025, -0.0033,  0.00,   1.3
2108,270327.000,  22.299926799, 114.177715477,   -4.5398,  2, 11,  0.0037,  0.0057,  0.0128, -0.0019,  0.0017, -0.0029,  0.00,   1.5
2108,270328.000,  22.299926884, 114.177715562,   -4.6016,  2, 11,  0.0039,  0.0055,  0.0127, -0.0025,  0.0012, -0.0028,  0.00,   1.7
2108,270329.000,  22.299926871, 114.177715608,   -4.6489,  2, 11,  0.0041,  0.0053,  0.0127, -0.0024,  0.0012, -0.0033,  0.00,   1.8
2108,270330.000,  22.299926820, 114.177716162,   -4.8972,  2, 12,  0.0031,  0.0054,  0.0119, -0.0025,  0.0027, -0.0035,  0.00,   1.4
2108,270331.000,  22.299926795, 114.177716217,   -4.9808,  2, 12,  0.0035,  0.0056,  0.0119, -0.0022,  0.0025, -0.0037,  0.00,   1.4
2108,270332.000,  22.299927101, 114.177715695,   -4.8044,  2, 11,  0.0041,  0.0056,  0.0127, -0.0019,  0.0010, -0.0029,  0.00,   2.1
2108,270333.000,  22.299927171, 114.177715789,   -4.8422,  2, 11,  0.0038,  0.0053,  0.0127, -0.0018,  0.0016, -0.0031,  0.00,   2.3
2108,270334.000,  22.299927284, 114.177715834,   -4.8852,  2, 11,  0.0032,  0.0056,  0.0127, -0.0026,  0.0017, -0.0033,  0.00,   2.3
2108,270335.000,  22.299932693, 114.177720114,   -7.8292,  2, 11,  0.0035,  0.0054,  0.0145, -0.0023, -0.0022, -0.0043,  0.00,   2.1
2108,270336.000,  22.299933062, 114.177720132,   -7.9333,  2, 12,  0.0036,  0.0053,  0.0134, -0.0023,  0.0010, -0.0045,  0.00,   1.4
2108,270337.000,  22.299933307, 114.177720345,   -8.1174,  2, 12,  0.0042,  0.0054,  0.0134, -0.0023,  0.0011, -0.0044,  0.00,   1.4
2108,270338.000,  22.299933516, 114.177720468,   -8.3034,  2, 12,  0.0046,  0.0055,  0.0135, -0.0018,  0.0012, -0.0044,  0.00,   1.4
2108,270339.000,  22.299928424, 114.177717515,   -6.0000,  2, 12,  0.0042,  0.0055,  0.0121, -0.0026,  0.0024, -0.0032,  0.00,   1.4
2108,270340.000,  22.299934596, 114.177721210,   -8.7727,  2, 12,  0.0041,  0.0053,  0.0136, -0.0022,  0.0012, -0.0042,  0.00,   1.4
2108,270341.000,  22.299934856, 114.177721822,   -9.2248,  2, 11,  0.0043,  0.0056,  0.0145, -0.0019, -0.0021, -0.0039,  0.00,   2.3
2108,270342.000,  22.299935292, 114.177722213,   -9.5031,  2, 11,  0.0042,  0.0054,  0.0145, -0.0018, -0.0021, -0.0041,  0.00,   2.3
2108,270343.000,  22.299935886, 114.177722702,   -9.8013,  2, 11,  0.0042,  0.0055,  0.0145, -0.0023, -0.0021, -0.0040,  0.00,   2.4
2108,270344.000,  22.299930431, 114.177718898,   -7.2163,  2, 12,  0.0043,  0.0056,  0.0122, -0.0019,  0.0023, -0.0030,  0.00,   1.5
2108,270345.000,  22.299936910, 114.177722988,  -10.2214,  2, 12,  0.0046,  0.0056,  0.0139, -0.0023, -0.0012, -0.0043,  0.00,   1.5
2108,270346.000,  22.299931515, 114.177719192,   -7.5135,  2, 12,  0.0039,  0.0055,  0.0127, -0.0024,  0.0015, -0.0030,  0.00,   1.5
2108,270347.000,  22.299931692, 114.177719391,   -7.6506,  2, 11,  0.0040,  0.0052,  0.0127, -0.0027,  0.0010, -0.0031,  0.00,   2.9
2108,270348.000,  22.299931912, 114.177719500,   -7.7945,  2, 11,  0.0038,  0.0054,  0.0128, -0.0021,  0.0019, -0.0030,  0.00,   2.9
2108,270349.000,  22.299932021, 114.177719664,   -7.9148,  2, 11,  0.0040,  0.0054,  0.0128, -0.0027,  0.0014, -0.0032,  0.00,   3.0
2108,270350.000,  22.299915344, 114.177707347,    2.7114,  1, 11,  0.0038,  0.0055,  0.0126, -0.0025,  0.0017, -0.0028,  0.00,   3.0
2108,270351.000,  22.299915341, 114.177707331,    2.7138,  1, 11,  0.0040,  0.0058,  0.0126, -0.0026,  0.0019, -0.0030,  0.00,   3.1
2108,270352.000,  22.299915366, 114.177707312,    2.7251,  1, 11,  0.0042,  0.0052,  0.0127, -0.0023,  0.0020, -0.0027,  0.00,   3.1
2108,270353.000,  22.299915370, 114.177707292,    2.7284,  1, 11,  0.0042,  0.0055,  0.0126, -0.0028,  0.0017, -0.0030,  0.00,   3.2
2108,270354.000,  22.299915314, 114.177707143,    2.6852,  1, 11,  0.0038,  0.0069,  0.0176, -0.0010,  0.0070,  0.0028,  0.00,   3.2
2108,270355.000,  22.299915313, 114.177707201,    2.7087,  1, 11,  0.0041,  0.0067,  0.0168, -0.0011,  0.0066,  0.0022,  0.00,   3.3
2108,270356.000,  22.299915335, 114.177707196,    2.7146,  1, 11,  0.0038,  0.0066,  0.0164, -0.0018,  0.0064,  0.0013,  0.00,   3.3
2108,270357.000,  22.299915190, 114.177708542,    2.7190,  2, 11,  0.0037,  0.0064,  0.0162, -0.0020,  0.0054, -0.0034,  0.00,   2.7
2108,270358.000,  22.299915382, 114.177708634,    2.7815,  2, 12,  0.0038,  0.0065,  0.0182, -0.0016,  0.0062, -0.0019,  0.00,   1.0
2108,270359.000,  22.299915581, 114.177710719,    3.1727,  2, 12,  0.0042,  0.0071,  0.0170, -0.0021,  0.0050, -0.0026,  0.00,   1.0
2108,270360.000,  22.299915704, 114.177709972,    3.2316,  2, 12,  0.0040,  0.0064,  0.0170, -0.0016,  0.0051, -0.0027,  0.00,   1.0
2108,270361.000,  22.299915580, 114.177710119,    3.2961,  2, 11,  0.0040,  0.0064,  0.0166, -0.0021,  0.0051, -0.0025,  0.00,   1.1
2108,270362.000,  22.299915202, 114.177709856,    3.1463,  2, 11,  0.0034,  0.0063,  0.0156, -0.0021,  0.0043, -0.0037,  0.00,   1.1
2108,270363.000,  22.299915422, 114.177709749,    3.1495,  2, 11,  0.0044,  0.0062,  0.0158, -0.0023,  0.0042, -0.0037,  0.00,   1.1
2108,270364.000,  22.299915087, 114.177711194,    3.4356,  2, 11,  0.0041,  0.0062,  0.0160, -0.0024, -0.0019, -0.0032,  0.00,   1.2
2108,270365.000,  22.299914854, 114.177710980,    3.1799,  2, 11,  0.0041,  0.0056,  0.0151, -0.0025, -0.0039, -0.0035,  0.00,   1.1
2108,270366.000,  22.299914616, 114.177711676,    3.3012,  2, 11,  0.0037,  0.0054,  0.0154, -0.0021, -0.0044, -0.0038,  0.00,   1.0
2108,270367.000,  22.299914628, 114.177711756,    3.1089,  2, 11,  0.0045,  0.0053,  0.0156, -0.0021, -0.0051, -0.0047,  0.00,   1.0
2108,270368.000,  22.299914560, 114.177711632,    2.9947,  2, 11,  0.0041,  0.0049,  0.0170, -0.0021, -0.0027, -0.0058,  0.00,   1.0
2108,270369.000,  22.299915076, 114.177712111,    3.0751,  2, 11,  0.0045,  0.0050,  0.0168, -0.0017, -0.0024, -0.0054,  0.00,   1.0
2108,270370.000,  22.299914354, 114.177712292,    3.1335,  2, 11,  0.0045,  0.0052,  0.0166, -0.0023, -0.0023, -0.0054,  0.00,   1.0
2108,270371.000,  22.299915139, 114.177711263,    3.0948,  2, 11,  0.0044,  0.0048,  0.0164, -0.0016, -0.0026, -0.0051,  0.00,   1.0
2108,270372.000,  22.299915155, 114.177711393,    3.1145,  2, 11,  0.0040,  0.0048,  0.0162, -0.0006, -0.0025, -0.0052,  0.00,   1.0
2108,270373.000,  22.299915217, 114.177711354,    3.1389,  2, 11,  0.0044,  0.0048,  0.0162, -0.0013, -0.0026, -0.0050,  0.00,   1.0
2108,270374.000,  22.299915233, 114.177711670,    3.1227,  2, 11,  0.0043,  0.0048,  0.0161, -0.0012, -0.0025, -0.0050,  0.00,   1.0
2108,270375.000,  22.299914870, 114.177711655,    3.1206,  2, 11,  0.0042,  0.0046,  0.0149, -0.0015, -0.0036, -0.0049,  0.00,   1.0
2108,270376.000,  22.299915023, 114.177711656,    3.1142,  2, 11,  0.0039,  0.0045,  0.0113, -0.0020, -0.0019, -0.0025,  0.00,   1.0
2108,270377.000,  22.299914493, 114.177711107,    3.1285,  2, 10,  0.0038,  0.0046,  0.0147, -0.0014, -0.0039, -0.0050,  0.00,   1.0
2108,270378.000,  22.299915018, 114.177711563,    3.1459,  2, 10,  0.0045,  0.0047,  0.0148, -0.0014, -0.0039, -0.0047,  0.00,   1.0
2108,270379.000,  22.299914749, 114.177711223,    3.1165,  2, 11,  0.0032,  0.0044,  0.0113, -0.0018, -0.0019, -0.0028,  0.00,   1.0
2108,270380.000,  22.299914544, 114.177711458,    3.1052,  2, 11,  0.0037,  0.0045,  0.0113, -0.0023, -0.0022, -0.0028,  0.00,   1.0
2108,270381.000,  22.299915115, 114.177711613,    3.1264,  2, 11,  0.0041,  0.0045,  0.0113, -0.0018, -0.0020, -0.0026,  0.00,   1.0
2108,270382.000,  22.299915040, 114.177711384,    3.1418,  2, 10,  0.0045,  0.0046,  0.0147, -0.0011, -0.0038, -0.0048,  0.00,   1.0
2108,270383.000,  22.299915053, 114.177711574,    3.1174,  2, 11,  0.0035,  0.0046,  0.0113, -0.0014, -0.0018, -0.0028,  0.00,   1.0
2108,270384.000,  22.299914467, 114.177711338,    3.0935,  2, 12,  0.0035,  0.0045,  0.0113, -0.0024, -0.0020, -0.0028,  0.00,   1.0
2108,270385.000,  22.299914523, 114.177711420,    3.1236,  2, 12,  0.0034,  0.0046,  0.0112, -0.0022, -0.0020, -0.0028,  0.00,   1.0
2108,270386.000,  22.299914646, 114.177711488,    3.1130,  2, 12,  0.0037,  0.0046,  0.0111, -0.0023, -0.0017, -0.0028,  0.00,   1.0
2108,270387.000,  22.299914720, 114.177711361,    3.1421,  2, 12,  0.0040,  0.0046,  0.0112, -0.0023, -0.0019, -0.0025,  0.00,   1.0
2108,270388.000,  22.299915289, 114.177711723,    2.9365,  2, 12,  0.0038,  0.0045,  0.0110, -0.0020, -0.0016, -0.0021,  0.00,   1.0
2108,270389.000,  22.299914994, 114.177711743,    3.0695,  2, 12,  0.0041,  0.0046,  0.0117, -0.0021, -0.0022, -0.0028,  0.00,   1.0
2108,270390.000,  22.299915155, 114.177711867,    2.9971,  2, 12,  0.0041,  0.0046,  0.0106, -0.0022, -0.0016, -0.0013,  0.00,   1.0
2108,270391.000,  22.299914803, 114.177712169,    3.0340,  2, 11,  0.0039,  0.0049,  0.0117, -0.0022, -0.0028, -0.0023,  0.00,   1.0
2108,270392.000,  22.299914814, 114.177711464,    3.0242,  2, 11,  0.0037,  0.0046,  0.0105, -0.0024, -0.0013, -0.0018,  0.00,   1.0
2108,270393.000,  22.299915204, 114.177711435,    3.0118,  2, 11,  0.0043,  0.0043,  0.0104, -0.0022, -0.0012, -0.0018,  0.00,   1.0
2108,270394.000,  22.299915170, 114.177711409,    3.0851,  2, 11,  0.0039,  0.0044,  0.0105, -0.0020, -0.0010, -0.0013,  0.00,   1.0
2108,270395.000,  22.299914905, 114.177711390,    3.0549,  2, 11,  0.0040,  0.0045,  0.0104, -0.0022, -0.0013, -0.0018,  0.00,   1.0
2108,270396.000,  22.299914982, 114.177711600,    3.0882,  2, 11,  0.0035,  0.0045,  0.0104, -0.0019, -0.0009, -0.0020,  0.00,   1.0
2108,270397.000,  22.299914809, 114.177711239,    3.0869,  2, 11,  0.0032,  0.0045,  0.0104, -0.0021, -0.0013, -0.0020,  0.00,   1.0
2108,270398.000,  22.299915021, 114.177711431,    3.1088,  2, 11,  0.0039,  0.0045,  0.0104, -0.0019, -0.0009, -0.0020,  0.00,   1.0
2108,270399.000,  22.299914581, 114.177711814,    3.0907,  2, 11,  0.0035,  0.0045,  0.0105, -0.0024, -0.0013, -0.0021,  0.00,   1.0
2108,270400.000,  22.299914777, 114.177711062,    3.1263,  2, 12,  0.0036,  0.0043,  0.0106, -0.0022, -0.0015, -0.0018,  0.00,   1.0
2108,270401.000,  22.299915005, 114.177711650,    3.1394,  2, 11,  0.0040,  0.0045,  0.0106, -0.0021, -0.0014, -0.0018,  0.00,   1.0
2108,270402.000,  22.299914825, 114.177711629,    3.1686,  2, 12,  0.0038,  0.0045,  0.0107, -0.0022, -0.0013, -0.0020,  0.00,   1.0
2108,270403.000,  22.299914907, 114.177711469,    3.2215,  2, 13,  0.0040,  0.0046,  0.0108, -0.0020, -0.0013, -0.0019,  0.00,   1.0
2108,270404.000,  22.299914203, 114.177712090,    3.2198,  2, 13,  0.0041,  0.0046,  0.0108, -0.0025, -0.0019, -0.0024,  0.00,   1.0
2108,270405.000,  22.299914515, 114.177710914,    3.2820,  2, 13,  0.0038,  0.0044,  0.0114, -0.0020, -0.0020, -0.0028,  0.00,   1.0
2108,270406.000,  22.299914224, 114.177711223,    3.3842,  2, 12,  0.0040,  0.0047,  0.0118, -0.0022, -0.0024, -0.0033,  0.00,   1.0
2108,270407.000,  22.299914850, 114.177711269,    3.1808,  2, 12,  0.0039,  0.0045,  0.0111, -0.0019, -0.0016, -0.0024,  0.00,   1.0
2108,270408.000,  22.299914647, 114.177711295,    3.1619,  2, 12,  0.0041,  0.0046,  0.0110, -0.0023, -0.0019, -0.0025,  0.00,   1.0
2108,270409.000,  22.299914711, 114.177711780,    3.3555,  2, 12,  0.0038,  0.0045,  0.0115, -0.0021,  0.0009, -0.0024,  0.00,   1.0
2108,270410.000,  22.299914813, 114.177711577,    3.3367,  2, 12,  0.0038,  0.0045,  0.0115, -0.0020,  0.0008, -0.0024,  0.00,   1.0
2108,270411.000,  22.299914892, 114.177711964,    3.2830,  2, 12,  0.0038,  0.0046,  0.0117, -0.0020, -0.0002, -0.0025,  0.00,   1.0
2108,270412.000,  22.299915029, 114.177711682,    3.3539,  2, 12,  0.0039,  0.0046,  0.0115, -0.0017,  0.0011, -0.0022,  0.00,   1.0
2108,270413.000,  22.299914903, 114.177712074,    3.3083,  2, 11,  0.0039,  0.0046,  0.0118, -0.0021,  0.0003, -0.0023,  0.00,   1.0
2108,270414.000,  22.299914865, 114.177711850,    3.3492,  2, 12,  0.0037,  0.0047,  0.0115, -0.0018,  0.0008, -0.0024,  0.00,   1.0
2108,270415.000,  22.299915043, 114.177711681,    3.3214,  2, 12,  0.0037,  0.0045,  0.0115, -0.0016,  0.0009, -0.0023,  0.00,   1.0
2108,270416.000,  22.299914931, 114.177711514,    3.3235,  2, 12,  0.0039,  0.0045,  0.0115, -0.0019,  0.0009, -0.0024,  0.00,   1.0
2108,270417.000,  22.299914844, 114.177711877,    3.3390,  2, 12,  0.0038,  0.0046,  0.0115, -0.0021,  0.0009, -0.0023,  0.00,   1.0
2108,270418.000,  22.299914928, 114.177712034,    3.3165,  2, 12,  0.0039,  0.0046,  0.0115, -0.0020,  0.0009, -0.0023,  0.00,   1.0
2108,270419.000,  22.299914740, 114.177712129,    3.3127,  2, 12,  0.0037,  0.0046,  0.0114, -0.0021,  0.0009, -0.0025,  0.00,   1.0
2108,270420.000,  22.299914914, 114.177711767,    3.3281,  2, 12,  0.0037,  0.0045,  0.0114, -0.0016,  0.0010, -0.0025,  0.00,   1.0
2108,270421.000,  22.299915104, 114.177711815,    3.3104,  2, 12,  0.0039,  0.0046,  0.0115, -0.0018,  0.0012, -0.0022,  0.00,   1.0
2108,270422.000,  22.299914623, 114.177712010,    3.3142,  2, 12,  0.0039,  0.0047,  0.0114, -0.0023,  0.0005, -0.0026,  0.00,   1.0
2108,270423.000,  22.299915026, 114.177711820,    3.3384,  2, 12,  0.0039,  0.0045,  0.0115, -0.0018,  0.0009, -0.0022,  0.00,   1.0
2108,270424.000,  22.299915007, 114.177711647,    3.3240,  2, 12,  0.0038,  0.0045,  0.0115, -0.0019,  0.0012, -0.0023,  0.00,   1.0
2108,270425.000,  22.299914844, 114.177711436,    3.1488,  2, 12,  0.0041,  0.0045,  0.0109, -0.0022, -0.0018, -0.0023,  0.00,   1.0
2108,270426.000,  22.299914515, 114.177711506,    3.1526,  2, 12,  0.0036,  0.0045,  0.0109, -0.0021, -0.0016, -0.0028,  0.00,   1.0
2108,270427.000,  22.299914798, 114.177711414,    3.1622,  2, 12,  0.0036,  0.0044,  0.0109, -0.0017, -0.0016, -0.0027,  0.00,   1.0
2108,270428.000,  22.299914737, 114.177711492,    3.1381,  2, 12,  0.0038,  0.0045,  0.0109, -0.0020, -0.0016, -0.0027,  0.00,   1.0
2108,270429.000,  22.299914773, 114.177711538,    3.1570,  2, 12,  0.0037,  0.0043,  0.0109, -0.0020, -0.0017, -0.0026,  0.00,   1.0
2108,270430.000,  22.299914630, 114.177711340,    3.1407,  2, 12,  0.0037,  0.0045,  0.0109, -0.0022, -0.0019, -0.0026,  0.00,   1.0
2108,270431.000,  22.299914498, 114.177711368,    3.1426,  2, 12,  0.0037,  0.0045,  0.0109, -0.0022, -0.0018, -0.0028,  0.00,   1.0
2108,270432.000,  22.299914367, 114.177711197,    3.1360,  2, 12,  0.0035,  0.0045,  0.0109, -0.0024, -0.0019, -0.0027,  0.00,   1.0
2108,270433.000,  22.299909591, 114.177720344,   -0.3568,  2, 12,  0.0040,  0.0044,  0.0102, -0.0024,  0.0009, -0.0028,  0.00,   1.0
2108,270434.000,  22.299909896, 114.177720257,   -0.3180,  2, 12,  0.0034,  0.0043,  0.0103, -0.0019,  0.0009, -0.0028,  0.00,   1.0
2108,270435.000,  22.299909245, 114.177719975,   -0.3762,  2, 12,  0.0038,  0.0043,  0.0102, -0.0017,  0.0012, -0.0030,  0.00,   1.0
2108,270436.000,  22.299909822, 114.177720108,   -0.3530,  2, 12,  0.0040,  0.0045,  0.0103, -0.0023,  0.0003, -0.0027,  0.00,   1.0
2108,270437.000,  22.299909615, 114.177720312,   -0.3453,  2, 12,  0.0041,  0.0044,  0.0102, -0.0020,  0.0007, -0.0028,  0.00,   1.0
2108,270438.000,  22.299910328, 114.177720740,   -0.8325,  2, 12,  0.0038,  0.0043,  0.0108, -0.0018,  0.0004, -0.0034,  0.00,   1.0
2108,270439.000,  22.299910037, 114.177720288,   -0.6174,  2, 12,  0.0034,  0.0043,  0.0106, -0.0018, -0.0006, -0.0031,  0.00,   1.0
2108,270440.000,  22.299914969, 114.177710969,    3.3847,  2, 12,  0.0042,  0.0045,  0.0135, -0.0015, -0.0033, -0.0045,  0.00,   1.0
2108,270441.000,  22.299914811, 114.177711228,    3.3243,  2, 12,  0.0040,  0.0045,  0.0135, -0.0019, -0.0032, -0.0046,  0.00,   1.0
2108,270442.000,  22.299915241, 114.177711153,    3.3574,  2, 12,  0.0041,  0.0046,  0.0135, -0.0013, -0.0032, -0.0045,  0.00,   1.0
2108,270443.000,  22.299915087, 114.177711069,    3.3689,  2, 12,  0.0042,  0.0046,  0.0135, -0.0017, -0.0033, -0.0045,  0.00,   1.0
2108,270444.000,  22.299915085, 114.177711537,    3.3481,  2, 12,  0.0040,  0.0046,  0.0135, -0.0017, -0.0031, -0.0045,  0.00,   1.0
2108,270445.000,  22.299910446, 114.177720884,   -0.6120,  2, 12,  0.0035,  0.0043,  0.0096, -0.0019,  0.0017, -0.0026,  0.00,   1.0
2108,270446.000,  22.299910648, 114.177720673,   -0.4231,  2, 12,  0.0036,  0.0044,  0.0096, -0.0019,  0.0017, -0.0023,  0.00,   1.0
2108,270447.000,  22.299910201, 114.177720988,   -0.2475,  2, 12,  0.0037,  0.0043,  0.0096, -0.0019,  0.0019, -0.0026,  0.00,   1.0
2108,270448.000,  22.299910593, 114.177720917,   -0.4242,  2, 12,  0.0034,  0.0043,  0.0103, -0.0019,  0.0010, -0.0030,  0.00,   1.0
2108,270449.000,  22.299909372, 114.177720260,   -0.0105,  2, 12,  0.0027,  0.0042,  0.0097, -0.0022,  0.0015, -0.0026,  0.00,   1.0
2108,270450.000,  22.299915489, 114.177711772,    3.3010,  2, 12,  0.0036,  0.0044,  0.0105, -0.0021, -0.0006, -0.0025,  0.00,   1.0
2108,270451.000,  22.299910364, 114.177720824,   -0.3739,  2, 12,  0.0034,  0.0042,  0.0103, -0.0022,  0.0008, -0.0032,  0.00,   1.0
2108,270452.000,  22.299915387, 114.177711486,    3.3212,  2, 12,  0.0038,  0.0044,  0.0109, -0.0023, -0.0014, -0.0027,  0.00,   1.0
2108,270453.000,  22.299915368, 114.177711463,    3.3091,  2, 12,  0.0036,  0.0045,  0.0109, -0.0020, -0.0016, -0.0027,  0.00,   1.0
2108,270454.000,  22.299915278, 114.177711470,    3.3098,  2, 12,  0.0035,  0.0045,  0.0108, -0.0020, -0.0017, -0.0027,  0.00,   1.0
2108,270455.000,  22.299915611, 114.177711433,    3.2808,  2, 12,  0.0038,  0.0044,  0.0108, -0.0022, -0.0017, -0.0027,  0.00,   1.0
2108,270456.000,  22.299915591, 114.177711530,    3.3288,  2, 12,  0.0038,  0.0045,  0.0109, -0.0023, -0.0016, -0.0025,  0.00,   1.0
2108,270457.000,  22.299915587, 114.177711591,    3.3497,  2, 12,  0.0036,  0.0045,  0.0108, -0.0016, -0.0016, -0.0028,  0.00,   1.0
2108,270458.000,  22.299915643, 114.177711733,    3.2822,  2, 12,  0.0036,  0.0044,  0.0108, -0.0022, -0.0013, -0.0026,  0.00,   1.0
2108,270459.000,  22.299915175, 114.177710986,    3.3197,  2, 12,  0.0036,  0.0044,  0.0108, -0.0020, -0.0018, -0.0029,  0.00,   1.0
2108,270460.000,  22.299915445, 114.177711324,    3.3227,  2, 12,  0.0038,  0.0045,  0.0108, -0.0021, -0.0016, -0.0027,  0.00,   1.0
2108,270461.000,  22.299915704, 114.177711801,    3.2852,  2, 12,  0.0036,  0.0044,  0.0108, -0.0022, -0.0015, -0.0026,  0.00,   1.0
2108,270462.000,  22.299915358, 114.177711394,    3.3062,  2, 12,  0.0038,  0.0045,  0.0108, -0.0023, -0.0017, -0.0028,  0.00,   1.0
2108,270463.000,  22.299915295, 114.177711194,    3.3287,  2, 12,  0.0038,  0.0045,  0.0108, -0.0021, -0.0018, -0.0029,  0.00,   1.0
2108,270464.000,  22.299910814, 114.177720918,   -0.2404,  2, 12,  0.0035,  0.0042,  0.0102, -0.0022,  0.0012, -0.0028,  0.00,   1.0
2108,270465.000,  22.299915467, 114.177711505,    3.3296,  2, 12,  0.0036,  0.0044,  0.0108, -0.0020, -0.0017, -0.0028,  0.00,   1.0
2108,270466.000,  22.299915278, 114.177711401,    3.3534,  2, 12,  0.0037,  0.0045,  0.0108, -0.0024, -0.0015, -0.0028,  0.00,   1.0
2108,270467.000,  22.299915319, 114.177711297,    3.3482,  2, 12,  0.0036,  0.0044,  0.0108, -0.0023, -0.0016, -0.0027,  0.00,   1.0
2108,270468.000,  22.299915649, 114.177711477,    3.3341,  2, 12,  0.0038,  0.0045,  0.0107, -0.0021, -0.0014, -0.0028,  0.00,   1.0
2108,270469.000,  22.299915282, 114.177711608,    3.3434,  2, 12,  0.0034,  0.0044,  0.0108, -0.0022, -0.0012, -0.0027,  0.00,   1.0
2108,270470.000,  22.299915366, 114.177711522,    3.4008,  2, 11,  0.0040,  0.0046,  0.0134, -0.0019, -0.0030, -0.0044,  0.00,   1.0
2108,270471.000,  22.299915385, 114.177711102,    3.3365,  2, 12,  0.0036,  0.0045,  0.0108, -0.0021, -0.0017, -0.0027,  0.00,   1.0
2108,270472.000,  22.299915422, 114.177711668,    3.3383,  2, 12,  0.0037,  0.0046,  0.0107, -0.0022, -0.0015, -0.0027,  0.00,   1.0
2108,270473.000,  22.299915686, 114.177711493,    3.3697,  2, 12,  0.0039,  0.0045,  0.0108, -0.0024, -0.0015, -0.0026,  0.00,   1.0
2108,270474.000,  22.299915155, 114.177711500,    3.3491,  2, 12,  0.0035,  0.0045,  0.0107, -0.0023, -0.0016, -0.0027,  0.00,   1.0
2108,270475.000,  22.299915238, 114.177711468,    3.3338,  2, 12,  0.0035,  0.0045,  0.0107, -0.0023, -0.0015, -0.0026,  0.00,   1.0
2108,270476.000,  22.299915177, 114.177711251,    3.3403,  2, 12,  0.0035,  0.0044,  0.0108, -0.0025, -0.0014, -0.0026,  0.00,   1.0
2108,270477.000,  22.299915591, 114.177711555,    3.3467,  2, 12,  0.0038,  0.0045,  0.0107, -0.0022, -0.0015, -0.0027,  0.00,   1.0
2108,270478.000,  22.299915586, 114.177711443,    3.3619,  2, 12,  0.0037,  0.0045,  0.0108, -0.0020, -0.0014, -0.0025,  0.00,   1.0
2108,270479.000,  22.299910378, 114.177721352,   -0.2505,  2, 12,  0.0034,  0.0043,  0.0101, -0.0021,  0.0015, -0.0030,  0.00,   1.0
2108,270480.000,  22.299911022, 114.177721085,   -0.2356,  2, 12,  0.0040,  0.0044,  0.0101, -0.0020,  0.0010, -0.0030,  0.00,   1.0
2108,270481.000,  22.299910646, 114.177720978,   -0.2829,  2, 12,  0.0037,  0.0044,  0.0101, -0.0022,  0.0009, -0.0030,  0.00,   1.0
2108,270482.000,  22.299910784, 114.177721184,   -0.2946,  2, 12,  0.0038,  0.0043,  0.0101, -0.0018,  0.0009, -0.0030,  0.00,   1.0
2108,270483.000,  22.299909954, 114.177721141,   -0.3508,  2, 12,  0.0036,  0.0044,  0.0101, -0.0016,  0.0014, -0.0032,  0.00,   1.0
2108,270484.000,  22.299910602, 114.177721073,   -0.3040,  2, 12,  0.0038,  0.0045,  0.0101, -0.0021,  0.0009, -0.0030,  0.00,   1.0
2108,270485.000,  22.299910360, 114.177721048,   -0.3136,  2, 12,  0.0036,  0.0044,  0.0101, -0.0024,  0.0011, -0.0030,  0.00,   1.0
2108,270486.000,  22.299909656, 114.177720704,   -0.0194,  2, 12,  0.0037,  0.0043,  0.0094, -0.0021,  0.0016, -0.0025,  0.00,   1.0
2108,270487.000,  22.299908977, 114.177720642,    0.1250,  2, 12,  0.0036,  0.0044,  0.0092, -0.0018,  0.0018, -0.0025,  0.00,   1.0
2108,270488.000,  22.299915194, 114.177710949,    3.4205,  2, 12,  0.0037,  0.0044,  0.0107, -0.0023, -0.0013, -0.0029,  0.00,   1.0
2108,270489.000,  22.299915540, 114.177711142,    3.3966,  2, 12,  0.0035,  0.0044,  0.0107, -0.0018, -0.0013, -0.0028,  0.00,   1.0
2108,270490.000,  22.299915284, 114.177711123,    3.4307,  2, 12,  0.0034,  0.0045,  0.0107, -0.0021, -0.0015, -0.0028,  0.00,   1.0
2108,270491.000,  22.299915225, 114.177711109,    3.4109,  2, 12,  0.0033,  0.0044,  0.0097, -0.0024,  0.0005, -0.0017,  0.00,   1.0
2108,270492.000,  22.299916080, 114.177711581,    3.4233,  2, 12,  0.0038,  0.0043,  0.0096, -0.0022,  0.0011, -0.0017,  0.00,   1.0
2108,270493.000,  22.299914877, 114.177711271,    3.4371,  2, 12,  0.0028,  0.0045,  0.0097, -0.0024,  0.0008, -0.0014,  0.00,   1.0
2108,270494.000,  22.299915589, 114.177711582,    3.5711,  2, 12,  0.0035,  0.0045,  0.0101, -0.0021,  0.0019, -0.0014,  0.00,   1.0
2108,270495.000,  22.299915782, 114.177711309,    3.4537,  2, 12,  0.0036,  0.0045,  0.0104, -0.0020,  0.0026, -0.0018,  0.00,   1.0
2108,270496.000,  22.299915640, 114.177711203,    3.4699,  2, 12,  0.0036,  0.0047,  0.0104, -0.0023,  0.0024, -0.0015,  0.00,   1.0
2108,270497.000,  22.299915588, 114.177711519,    3.4476,  2, 12,  0.0037,  0.0048,  0.0104, -0.0023,  0.0024, -0.0019,  0.00,   1.0
2108,270498.000,  22.299915414, 114.177711153,    3.4488,  2, 12,  0.0037,  0.0047,  0.0104, -0.0025,  0.0026, -0.0020,  0.00,   1.0
2108,270499.000,  22.299915658, 114.177711235,    3.4710,  2, 12,  0.0037,  0.0047,  0.0106, -0.0022,  0.0025, -0.0016,  0.00,   1.0
2108,270500.000,  22.299915798, 114.177711194,    3.4991,  2, 12,  0.0036,  0.0046,  0.0107, -0.0022,  0.0025, -0.0014,  0.00,   1.0
2108,270501.000,  22.299915337, 114.177711097,    3.4906,  2, 12,  0.0036,  0.0048,  0.0110, -0.0022,  0.0022, -0.0025,  0.00,   1.0
2108,270502.000,  22.299915595, 114.177711156,    3.4902,  2, 12,  0.0037,  0.0047,  0.0114, -0.0021,  0.0018, -0.0028,  0.00,   1.0
2108,270503.000,  22.299915785, 114.177711264,    3.4906,  2, 12,  0.0038,  0.0047,  0.0114, -0.0020,  0.0020, -0.0026,  0.00,   1.0
2108,270504.000,  22.299915786, 114.177711373,    3.4769,  2, 12,  0.0041,  0.0048,  0.0114, -0.0022,  0.0018, -0.0028,  0.00,   1.0
2108,270505.000,  22.299915652, 114.177711354,    3.4893,  2, 12,  0.0035,  0.0047,  0.0114, -0.0019,  0.0020, -0.0029,  0.00,   1.0
2108,270506.000,  22.299915850, 114.177711135,    3.4827,  2, 12,  0.0037,  0.0046,  0.0114, -0.0018,  0.0021, -0.0028,  0.00,   1.0
2108,270507.000,  22.299915554, 114.177711296,    3.4814,  2, 12,  0.0037,  0.0048,  0.0114, -0.0022,  0.0020, -0.0027,  0.00,   1.0
2108,270508.000,  22.299915406, 114.177711204,    3.4007,  2, 12,  0.0032,  0.0045,  0.0117, -0.0022,  0.0024, -0.0029,  0.00,   1.0
2108,270509.000,  22.299915654, 114.177711466,    3.4279,  2, 12,  0.0035,  0.0046,  0.0116, -0.0020,  0.0025, -0.0031,  0.00,   1.0
2108,270510.000,  22.299915965, 114.177711302,    3.4502,  2, 12,  0.0037,  0.0047,  0.0115, -0.0020,  0.0024, -0.0031,  0.00,   1.0
2108,270511.000,  22.299915568, 114.177711222,    3.4731,  2, 12,  0.0032,  0.0046,  0.0115, -0.0019,  0.0026, -0.0031,  0.00,   1.0
2108,270512.000,  22.299915790, 114.177711031,    3.4918,  2, 12,  0.0035,  0.0046,  0.0114, -0.0017,  0.0025, -0.0032,  0.00,   1.1
2108,270513.000,  22.299915852, 114.177711183,    3.4822,  2, 12,  0.0037,  0.0047,  0.0114, -0.0016,  0.0025, -0.0033,  0.00,   1.1
2108,270514.000,  22.299915642, 114.177711088,    3.4996,  2, 12,  0.0032,  0.0046,  0.0114, -0.0021,  0.0025, -0.0031,  0.00,   1.1
2108,270515.000,  22.299915842, 114.177711161,    3.4987,  2, 12,  0.0036,  0.0046,  0.0114, -0.0019,  0.0027, -0.0032,  0.00,   1.1
2108,270516.000,  22.299915410, 114.177711049,    3.4932,  2, 12,  0.0033,  0.0047,  0.0110, -0.0023,  0.0029, -0.0027,  0.00,   1.0
2108,270517.000,  22.299916026, 114.177711528,    3.4948,  2, 12,  0.0038,  0.0046,  0.0113, -0.0020,  0.0027, -0.0032,  0.00,   1.1
2108,270518.000,  22.299915794, 114.177711044,    3.5109,  2, 12,  0.0036,  0.0047,  0.0114, -0.0017,  0.0027, -0.0032,  0.00,   1.1
2108,270519.000,  22.299915858, 114.177711787,    3.7422,  2, 12,  0.0034,  0.0048,  0.0122, -0.0018,  0.0038, -0.0030,  0.00,   1.1
2108,270520.000,  22.299915812, 114.177711861,    3.7558,  2, 12,  0.0035,  0.0048,  0.0118, -0.0015,  0.0038, -0.0029,  0.00,   1.0
2108,270521.000,  22.299915807, 114.177711901,    3.7598,  2, 12,  0.0034,  0.0047,  0.0121, -0.0016,  0.0038, -0.0031,  0.00,   1.0
2108,270522.000,  22.299915921, 114.177711869,    3.7803,  2, 12,  0.0037,  0.0050,  0.0121, -0.0016,  0.0036, -0.0031,  0.00,   1.0
2108,270523.000,  22.299915743, 114.177711939,    3.7490,  2, 12,  0.0035,  0.0048,  0.0120, -0.0020,  0.0035, -0.0031,  0.00,   1.0
2108,270524.000,  22.299915818, 114.177712036,    3.7595,  2, 12,  0.0035,  0.0049,  0.0121, -0.0018,  0.0037, -0.0030,  0.00,   1.0
2108,270525.000,  22.299916032, 114.177712044,    3.7625,  2, 12,  0.0035,  0.0048,  0.0121, -0.0018,  0.0038, -0.0031,  0.00,   1.0
2108,270526.000,  22.299915893, 114.177711976,    3.7639,  2, 12,  0.0036,  0.0048,  0.0121, -0.0017,  0.0038, -0.0030,  0.00,   1.0
2108,270527.000,  22.299916094, 114.177712097,    3.7406,  2, 12,  0.0037,  0.0048,  0.0121, -0.0016,  0.0038, -0.0032,  0.00,   1.0
2108,270528.000,  22.299915879, 114.177712109,    3.7819,  2, 12,  0.0034,  0.0048,  0.0121, -0.0020,  0.0038, -0.0031,  0.00,   1.0
2108,270529.000,  22.299915814, 114.177712102,    3.7276,  2, 12,  0.0031,  0.0049,  0.0112, -0.0020,  0.0040, -0.0016,  0.00,   1.0
2108,270530.000,  22.299916037, 114.177712112,    3.7444,  2, 12,  0.0034,  0.0048,  0.0109, -0.0018,  0.0040, -0.0021,  0.00,   1.0
2108,270531.000,  22.299915982, 114.177712106,    3.7411,  2, 12,  0.0032,  0.0049,  0.0108, -0.0018,  0.0040, -0.0019,  0.00,   1.0
2108,270532.000,  22.299915818, 114.177711862,    3.7830,  2, 12,  0.0033,  0.0048,  0.0107, -0.0022,  0.0041, -0.0017,  0.00,   1.0
2108,270533.000,  22.299915905, 114.177711901,    3.7590,  2, 12,  0.0034,  0.0049,  0.0107, -0.0018,  0.0041, -0.0020,  0.00,   1.0
2108,270534.000,  22.299915758, 114.177712060,    3.7543,  2, 12,  0.0032,  0.0049,  0.0107, -0.0020,  0.0041, -0.0017,  0.00,   1.0
2108,270535.000,  22.299915881, 114.177712088,    3.7782,  2, 12,  0.0033,  0.0048,  0.0107, -0.0022,  0.0041, -0.0018,  0.00,   1.0
2108,270536.000,  22.299915817, 114.177711970,    3.7567,  2, 12,  0.0031,  0.0048,  0.0107, -0.0020,  0.0041, -0.0017,  0.00,   1.0
2108,270537.000,  22.299915817, 114.177711228,    3.5455,  2, 12,  0.0033,  0.0050,  0.0115, -0.0020,  0.0048, -0.0017,  0.00,   1.0
2108,270538.000,  22.299916005, 114.177711281,    3.5388,  2, 12,  0.0034,  0.0050,  0.0115, -0.0015,  0.0048, -0.0020,  0.00,   1.0
2108,270539.000,  22.299916138, 114.177711367,    3.5356,  2, 12,  0.0036,  0.0051,  0.0115, -0.0018,  0.0047, -0.0020,  0.00,   1.0
2108,270540.000,  22.299916013, 114.177711306,    3.5393,  2, 12,  0.0034,  0.0050,  0.0115, -0.0014,  0.0047, -0.0019,  0.00,   1.0
2108,270541.000,  22.299915798, 114.177711181,    3.5485,  2, 12,  0.0034,  0.0051,  0.0115, -0.0020,  0.0048, -0.0019,  0.00,   1.0
2108,270542.000,  22.299915831, 114.177711124,    3.5545,  2, 12,  0.0033,  0.0050,  0.0115, -0.0019,  0.0048, -0.0018,  0.00,   1.0
2108,270543.000,  22.299915967, 114.177711279,    3.5543,  2, 12,  0.0035,  0.0051,  0.0115, -0.0019,  0.0048, -0.0019,  0.00,   1.0
2108,270544.000,  22.299915932, 114.177711110,    3.5691,  2, 12,  0.0035,  0.0051,  0.0115, -0.0021,  0.0048, -0.0018,  0.00,   1.1
2108,270545.000,  22.299915903, 114.177711255,    3.5642,  2, 12,  0.0032,  0.0050,  0.0115, -0.0020,  0.0048, -0.0017,  0.00,   1.1
2108,270546.000,  22.299915925, 114.177711314,    3.5693,  2, 12,  0.0035,  0.0051,  0.0116, -0.0019,  0.0048, -0.0019,  0.00,   1.1
2108,270547.000,  22.299915724, 114.177711231,    3.5793,  2, 12,  0.0033,  0.0051,  0.0116, -0.0017,  0.0048, -0.0020,  0.00,   1.1
2108,270548.000,  22.299915834, 114.177711172,    3.5782,  2, 12,  0.0035,  0.0050,  0.0115, -0.0018,  0.0046, -0.0022,  0.00,   1.1
2108,270549.000,  22.299915925, 114.177711298,    3.5575,  2, 12,  0.0037,  0.0050,  0.0116, -0.0019,  0.0046, -0.0024,  0.00,   1.1
2108,270550.000,  22.299915785, 114.177711276,    3.6057,  2, 12,  0.0035,  0.0051,  0.0120, -0.0019,  0.0045, -0.0028,  0.00,   1.1
2108,270551.000,  22.299915592, 114.177710898,    3.5834,  2, 12,  0.0033,  0.0049,  0.0128, -0.0021,  0.0044, -0.0028,  0.00,   1.0
2108,270552.000,  22.299915995, 114.177711178,    3.5835,  2, 12,  0.0036,  0.0050,  0.0128, -0.0017,  0.0044, -0.0031,  0.00,   1.0
2108,270553.000,  22.299915545, 114.177711130,    3.5651,  2, 11,  0.0039,  0.0051,  0.0176, -0.0018,  0.0041, -0.0056,  0.00,   1.0
2108,270554.000,  22.299916052, 114.177711358,    3.5440,  2, 11,  0.0041,  0.0051,  0.0177, -0.0018,  0.0041, -0.0056,  0.00,   1.0
2108,270555.000,  22.299915816, 114.177711165,    3.5397,  2, 12,  0.0034,  0.0050,  0.0127, -0.0021,  0.0044, -0.0032,  0.00,   1.0
2108,270556.000,  22.299916044, 114.177711181,    3.5239,  2, 12,  0.0038,  0.0052,  0.0129, -0.0018,  0.0046, -0.0033,  0.00,   1.0
2108,270557.000,  22.299916458, 114.177711206,    3.2575,  2, 12,  0.0038,  0.0050,  0.0118, -0.0017,  0.0045, -0.0026,  0.00,   1.0
2108,270558.000,  22.299916453, 114.177711340,    3.2584,  2, 12,  0.0034,  0.0050,  0.0118, -0.0015,  0.0045, -0.0024,  0.00,   1.0
2108,270559.000,  22.299916516, 114.177711435,    3.2876,  2, 12,  0.0035,  0.0051,  0.0115, -0.0019,  0.0045, -0.0024,  0.00,   1.0
2108,270560.000,  22.299916246, 114.177711224,    3.3065,  2, 12,  0.0030,  0.0052,  0.0114, -0.0019,  0.0046, -0.0018,  0.00,   1.0
2108,270561.000,  22.299916355, 114.177711262,    3.3057,  2, 12,  0.0035,  0.0052,  0.0113, -0.0017,  0.0045, -0.0021,  0.00,   1.0
2108,270562.000,  22.299916208, 114.177711000,    3.3019,  2, 12,  0.0033,  0.0050,  0.0113, -0.0023,  0.0046, -0.0021,  0.00,   1.0
2108,270563.000,  22.299916368, 114.177711111,    3.2907,  2, 12,  0.0033,  0.0052,  0.0113, -0.0020,  0.0046, -0.0019,  0.00,   1.0
2108,270564.000,  22.299916574, 114.177711171,    3.2889,  2, 12,  0.0034,  0.0053,  0.0112, -0.0020,  0.0045, -0.0020,  0.00,   1.0
2108,270565.000,  22.299916654, 114.177711202,    3.2643,  2, 11,  0.0036,  0.0053,  0.0129, -0.0014,  0.0056,  0.0013,  0.00,   1.1
2108,270566.000,  22.299916632, 114.177711251,    3.2473,  2, 11,  0.0035,  0.0052,  0.0129, -0.0014,  0.0056,  0.0014,  0.00,   1.1
2108,270567.000,  22.299916233, 114.177711059,    3.2506,  2, 11,  0.0030,  0.0044,  0.0090, -0.0022,  0.0021, -0.0022,  0.00,   1.1
2108,270568.000,  22.299916343, 114.177710836,    3.2244,  2, 11,  0.0034,  0.0043,  0.0090, -0.0023,  0.0019, -0.0025,  0.00,   1.1
2108,270569.000,  22.299916502, 114.177711034,    3.1764,  2, 12,  0.0033,  0.0044,  0.0091, -0.0021,  0.0018, -0.0023,  0.00,   1.1
2108,270570.000,  22.299916617, 114.177711073,    3.1467,  2, 11,  0.0034,  0.0043,  0.0090, -0.0021,  0.0020, -0.0023,  0.00,   1.1
2108,270571.000,  22.299916717, 114.177711352,    3.1175,  2, 11,  0.0033,  0.0044,  0.0091, -0.0022,  0.0020, -0.0023,  0.00,   1.1
2108,270572.000,  22.299916780, 114.177710988,    3.0888,  2, 11,  0.0031,  0.0042,  0.0090, -0.0020,  0.0018, -0.0020,  0.00,   1.1
2108,270573.000,  22.299916905, 114.177711357,    3.0507,  2, 11,  0.0035,  0.0045,  0.0099, -0.0019,  0.0031, -0.0025,  0.00,   1.1
2108,270574.000,  22.299917370, 114.177711491,    2.9793,  2, 11,  0.0035,  0.0045,  0.0099, -0.0021,  0.0031, -0.0023,  0.00,   1.1
2108,270575.000,  22.299917409, 114.177711494,    2.9051,  2, 11,  0.0032,  0.0046,  0.0098, -0.0018,  0.0030, -0.0022,  0.00,   1.1
2108,270576.000,  22.299911046, 114.177721285,   -0.4845,  2, 12,  0.0035,  0.0041,  0.0088, -0.0021,  0.0023, -0.0027,  0.00,   1.0
2108,270577.000,  22.299909621, 114.177722088,   -0.2625,  2, 12,  0.0031,  0.0040,  0.0087, -0.0017,  0.0025, -0.0026,  0.00,   1.0
2108,270578.000,  22.299916906, 114.177711422,    3.0274,  2, 11,  0.0032,  0.0044,  0.0093, -0.0023,  0.0019, -0.0024,  0.00,   1.1
2108,270579.000,  22.299908811, 114.177721442,   -0.2025,  2, 12,  0.0034,  0.0043,  0.0090, -0.0019,  0.0023, -0.0033,  0.00,   1.0
2108,270580.000,  22.299915397, 114.177707396,    2.7014,  1, 11,  0.0045,  0.0065,  0.0176, -0.0025,  0.0056, -0.0039,  0.00, 374.2
2108,270581.000,  22.299915359, 114.177707393,    2.7007,  1, 11,  0.0042,  0.0066,  0.0176, -0.0018,  0.0057, -0.0039,  0.00, 369.9
2108,270582.000,  22.299915371, 114.177707370,    2.6962,  1, 12,  0.0045,  0.0065,  0.0175, -0.0019,  0.0056, -0.0039,  0.00,   5.7
2108,270583.000,  22.299915389, 114.177707370,    2.6904,  1, 12,  0.0042,  0.0065,  0.0175, -0.0019,  0.0057, -0.0041,  0.00,   5.2
2108,270584.000,  22.299915376, 114.177707392,    2.6912,  1, 12,  0.0041,  0.0065,  0.0176, -0.0015,  0.0056, -0.0035,  0.00,   4.8
2108,270585.000,  22.299915339, 114.177707470,    2.7010,  1, 11,  0.0043,  0.0067,  0.0178, -0.0020,  0.0060, -0.0038,  0.00, 362.8
2108,270586.000,  22.299915339, 114.177707465,    2.6984,  1, 11,  0.0045,  0.0070,  0.0202, -0.0013,  0.0075, -0.0022,  0.00, 361.3
2108,270587.000,  22.299915354, 114.177707474,    2.7035,  1, 11,  0.0041,  0.0073,  0.0208, -0.0009,  0.0081,  0.0006,  0.00, 359.6
